state_fips,state_name_x,fips,county_name_x,county_start_date,county_end_date,state_start_date,state_end_date,earliest_start_date,mask_mandate,month_started,mandate_duration_months,date,county,state,cases,deaths,county_name_y,state_name_y,lat,lng
1.0,ALABAMA  ,1071,Jackson County    ,2020-07-01,,07/16/2020,07/31/2020,7-1-2020,1,7,5.0,2020-12-31,Jackson,Alabama,5097.0,34.0,Jackson,Alabama,34.7795,-85.9994
1.0,ALABAMA  ,1093,Marion County    ,2020-07-09,,07/16/2020,07/31/2020,7-9-2020,1,7,5.0,2020-12-31,Marion,Alabama,2087.0,43.0,Marion,Alabama,34.1366,-87.8871
1.0,ALABAMA  ,1073,Jefferson County    ,2020-06-29,,07/16/2020,07/31/2020,6-29-2020,1,6,6.0,2020-12-31,Jefferson,Alabama,52339.0,697.0,Jefferson,Alabama,33.5543,-86.8964
1.0,ALABAMA  ,1063,Greene County    ,2020-07-01,,07/16/2020,07/31/2020,7-1-2020,1,7,5.0,2020-12-31,Greene,Alabama,672.0,20.0,Greene,Alabama,32.8531,-87.9522
1.0,ALABAMA  ,1089,Madison County    ,2020-07-07,,07/16/2020,07/31/2020,7-7-2020,1,7,5.0,2020-12-31,Madison,Alabama,22197.0,178.0,Madison,Alabama,34.7631,-86.5502
1.0,ALABAMA  ,1125,Tuscaloosa County    ,2020-06-30,  8/5/2020,07/16/2020,07/31/2020,6-30-2020,1,6,6.0,2020-12-31,Tuscaloosa,Alabama,18468.0,218.0,Tuscaloosa,Alabama,33.2896,-87.5251
1.0,ALABAMA  ,1025,Clarke County    ,2020-07-09,  8/4/2020,07/16/2020,07/31/2020,7-9-2020,1,7,5.0,2020-12-31,Clarke,Alabama,2390.0,25.0,Clarke,Alabama,31.6767,-87.8308
1.0,ALABAMA  ,1087,Macon County    ,2020-06-30, 7/31/2020,07/16/2020,07/31/2020,6-30-2020,1,6,6.0,2020-12-31,Macon,Alabama,999.0,30.0,Macon,Alabama,32.3859,-85.6927
1.0,ALABAMA  ,1101,Montgomery County    ,2020-06-19,,07/16/2020,07/31/2020,6-19-2020,1,6,6.0,2020-12-31,Montgomery,Alabama,16116.0,276.0,Montgomery,Alabama,32.2203,-86.2076
1.0,ALABAMA  ,1003,Baldwin County     ,2020-07-06,,07/16/2020,07/31/2020,7-6-2020,1,7,5.0,2020-12-31,Baldwin,Alabama,13601.0,161.0,Baldwin,Alabama,30.7275,-87.7226
1.0,ALABAMA  ,1103,Morgan County    ,2020-07-16,,07/16/2020,07/31/2020,7-16-2020,1,7,5.0,2020-12-31,Morgan,Alabama,10627.0,87.0,Morgan,Alabama,34.4535,-86.8529
1.0,ALABAMA  ,1117,Shelby County    ,2020-07-07,,07/16/2020,07/31/2020,7-7-2020,1,7,5.0,2020-12-31,Shelby,Alabama,15668.0,103.0,Shelby,Alabama,33.2643,-86.6607
1.0,ALABAMA  ,1047,Dallas County    ,2020-06-20,  8/4/2020,07/16/2020,07/31/2020,6-20-2020,1,6,6.0,2020-12-31,Dallas,Alabama,2769.0,43.0,Dallas,Alabama,32.326,-87.1065
1.0,ALABAMA  ,1097,Mobile County    ,2020-07-01, 7/31/2020,07/16/2020,07/31/2020,7-1-2020,1,7,5.0,2020-12-31,Mobile,Alabama,25858.0,506.0,Mobile,Alabama,30.7872,-88.2058
2.0,ALASKA  ,2070,Dillingham Census Area   ,2020-06-11,,,,6-11-2020,1,6,6.0,2020-12-31,Dillingham Census Area,Alaska,121.0,1.0,Dillingham,Alaska,59.7991,-158.2351
2.0,ALASKA  ,2188,Northwest Arctic Borough   ,2020-06-19, 7/31/2020,,,6-19-2020,1,6,6.0,2020-12-31,Northwest Arctic Borough,Alaska,401.0,0.0,Northwest Arctic,Alaska,67.053,-159.721
2.0,ALASKA  ,2110,Juneau Borough    ,2020-07-21,,,,7-21-2020,1,7,5.0,2020-12-31,Juneau City and Borough,Alaska,1030.0,3.0,Juneau,Alaska,58.4546,-134.1739
2.0,ALASKA  ,2122,Kenai Peninsula Borough   ,2020-07-01,,,,7-1-2020,1,7,5.0,2020-12-31,Kenai Peninsula Borough,Alaska,3604.0,15.0,Kenai Peninsula,Alaska,60.2654,-151.5652
2.0,ALASKA  ,2020,Anchorage Borough    ,2020-06-29,,,,6-29-2020,1,6,6.0,2020-12-31,Anchorage,Alaska,22820.0,118.0,Anchorage,Alaska,61.1508,-149.1091
2.0,ALASKA  ,2261,Valdez-Cordova Census Area   ,2020-04-23,,,,4-23-2020,1,4,8.0,2020-12-31,Valdez-Cordova Census Area,Alaska,341.0,2.0,Valdez-Cordova,Alaska,61.562,-144.4686
2.0,ALASKA  ,2016,Aleutians West Census Area  ,2020-04-15,,,,4-15-2020,1,4,8.0,2020-12-31,Aleutians West Census Area,Alaska,197.0,0.0,Aleutians West,Alaska,52.798,-106.6061
4.0,ARIZONA  ,4017,Navajo County    ,2020-04-17,,,,4-17-2020,1,4,8.0,2020-12-31,Navajo,Arizona,11296.0,342.0,Navajo,Arizona,35.3997,-110.3214
4.0,ARIZONA  ,4023,Santa Cruz County   ,2020-06-19,,,,6-19-2020,1,6,6.0,2020-12-31,Santa Cruz,Arizona,6002.0,98.0,Santa Cruz,Arizona,31.5259,-110.8465
4.0,ARIZONA  ,4005,Coconino County    ,2020-06-20,,,,6-20-2020,1,6,6.0,2020-12-31,Coconino,Arizona,11126.0,210.0,Coconino,Arizona,35.8387,-111.7705
4.0,ARIZONA  ,4015,Mohave County    ,2020-07-02,,,,7-2-2020,1,7,5.0,2020-12-31,Mohave,Arizona,12573.0,344.0,Mohave,Arizona,35.7041,-113.758
4.0,ARIZONA  ,4025,Yavapai County    ,2020-06-18,,,,6-18-2020,1,6,6.0,2020-12-31,Yavapai,Arizona,11319.0,218.0,Yavapai,Arizona,34.5999,-112.554
4.0,ARIZONA  ,4019,Pima County    ,2020-06-19,,,,6-19-2020,1,6,6.0,2020-12-31,Pima,Arizona,69522.0,1064.0,Pima,Arizona,32.0974,-111.7899
4.0,ARIZONA  ,4007,Gila County    ,2020-06-01,,,,6-1-2020,1,6,6.0,2020-12-31,Gila,Arizona,4517.0,135.0,Gila,Arizona,33.7997,-110.8117
4.0,ARIZONA  ,4013,Maricopa County    ,2020-06-20,,,,6-20-2020,1,6,6.0,2020-12-31,Maricopa,Arizona,322449.0,5125.0,Maricopa,Arizona,33.349,-112.4915
4.0,ARIZONA  ,4027,Yuma County    ,2020-06-18,,,,6-18-2020,1,6,6.0,2020-12-31,Yuma,Arizona,27366.0,519.0,Yuma,Arizona,32.7695,-113.9056
5.0,ARKANSAS  ,5125,Saline County    ,2020-07-09,,07/20/2020,,7-9-2020,1,7,5.0,2020-12-31,Saline,Arkansas,7563.0,104.0,Saline,Arkansas,34.6466,-92.6765
5.0,ARKANSAS  ,5001,Arkansas County    ,2020-07-16,,07/20/2020,,7-16-2020,1,7,5.0,2020-12-31,Arkansas,Arkansas,1314.0,30.0,Arkansas,Arkansas,34.2908,-91.3749
5.0,ARKANSAS  ,5029,Conway County    ,2020-07-06,,07/20/2020,,7-6-2020,1,7,5.0,2020-12-31,Conway,Arkansas,1306.0,16.0,Conway,Arkansas,35.2622,-92.7013
5.0,ARKANSAS  ,5051,Garland County    ,2020-03-16,,07/20/2020,,3-16-2020,1,3,9.0,2020-12-31,Garland,Arkansas,5782.0,153.0,Garland,Arkansas,34.5767,-93.1504
6.0,CALIFORNIA  ,6087,Santa Cruz County   ,2020-04-24,,06/18/2020,,4-24-2020,1,4,8.0,2020-12-31,Santa Cruz,California,8749.0,83.0,Santa Cruz,California,37.0562,-122.0018
6.0,CALIFORNIA  ,6065,Riverside County    ,2020-04-05, 6/19/2020,06/18/2020,,4-5-2020,1,4,8.0,2020-12-31,Riverside,California,180553.0,1985.0,Riverside,California,33.7437,-115.9938
6.0,CALIFORNIA  ,6059,Orange County    ,2020-05-29, 6/11/2020,06/18/2020,,5-29-2020,1,5,7.0,2020-12-31,Orange,California,166196.0,1875.0,Orange,California,33.703,-117.7611
6.0,CALIFORNIA  ,6069,San Benito County   ,2020-04-27,,06/18/2020,,4-27-2020,1,4,8.0,2020-12-31,San Benito,California,3673.0,29.0,San Benito,California,36.6057,-121.075
6.0,CALIFORNIA  ,6029,Kern County    ,2020-04-16,,06/18/2020,,4-16-2020,1,4,8.0,2020-12-31,Kern,California,68969.0,512.0,Kern,California,35.3429,-118.7299
6.0,CALIFORNIA  ,6001,Alameda County    ,2020-04-22,,06/18/2020,,4-22-2020,1,4,8.0,2020-12-31,Alameda,California,51611.0,657.0,Alameda,California,37.6469,-121.8889
6.0,CALIFORNIA  ,6055,Napa County    ,2020-05-27,,06/18/2020,,5-27-2020,1,5,7.0,2020-12-31,Napa,California,5742.0,28.0,Napa,California,38.5065,-122.3305
6.0,CALIFORNIA  ,6063,Plumas County    ,2020-05-08,,06/18/2020,,5-8-2020,1,5,7.0,2020-12-31,Plumas,California,398.0,1.0,Plumas,California,40.0046,-120.8385
6.0,CALIFORNIA  ,6013,Contra Costa County   ,2020-04-22,,06/18/2020,,4-22-2020,1,4,8.0,2020-12-31,Contra Costa,California,40697.0,335.0,Contra Costa,California,37.9191,-121.9278
6.0,CALIFORNIA  ,6101,Sutter County    ,2020-05-01,,06/18/2020,,5-1-2020,1,5,7.0,2020-12-31,Sutter,California,6505.0,52.0,Sutter,California,39.0346,-121.6948
6.0,CALIFORNIA  ,6113,Yolo County    ,2020-04-27,,06/18/2020,,4-27-2020,1,4,8.0,2020-12-31,Yolo,California,8238.0,111.0,Yolo,California,38.6866,-121.9016
6.0,CALIFORNIA  ,6037,Los Angeles County   ,2020-04-15,,06/18/2020,,4-15-2020,1,4,8.0,2020-12-31,Los Angeles,California,770915.0,10345.0,Los Angeles,California,34.3207,-118.2248
6.0,CALIFORNIA  ,6073,San Diego County   ,2020-05-01,,06/18/2020,,5-1-2020,1,5,7.0,2020-12-31,San Diego,California,155658.0,1534.0,San Diego,California,33.0341,-116.7353
6.0,CALIFORNIA  ,6075,San Francisco County   ,2020-05-29,,06/18/2020,,5-29-2020,1,5,7.0,2020-12-31,San Francisco,California,23227.0,186.0,San Francisco,California,37.7562,-122.443
6.0,CALIFORNIA  ,6025,Imperial County    ,2020-04-10,,06/18/2020,,4-10-2020,1,4,8.0,2020-12-31,Imperial,California,22267.0,419.0,Imperial,California,33.0395,-115.3654
6.0,CALIFORNIA  ,6041,Marin County    ,2020-04-20,,06/18/2020,,4-20-2020,1,4,8.0,2020-12-31,Marin,California,9800.0,139.0,Marin,California,38.0734,-122.7234
6.0,CALIFORNIA  ,6115,Yuba County    ,2020-05-01,,06/18/2020,,5-1-2020,1,5,7.0,2020-12-31,Yuba,California,3898.0,19.0,Yuba,California,39.269,-121.3513
6.0,CALIFORNIA  ,6071,San Bernardino County   ,2020-04-08,,06/18/2020,,4-8-2020,1,4,8.0,2020-12-31,San Bernardino,California,194377.0,1445.0,San Bernardino,California,34.8414,-116.1784
6.0,CALIFORNIA  ,6051,Mono County    ,2020-04-13,,06/18/2020,,4-13-2020,1,4,8.0,2020-12-31,Mono,California,868.0,4.0,Mono,California,37.9391,-118.8868
6.0,CALIFORNIA  ,6085,Santa Clara County   ,2020-05-19,,06/18/2020,,5-19-2020,1,5,7.0,2020-12-31,Santa Clara,California,69879.0,710.0,Santa Clara,California,37.2318,-121.6951
6.0,CALIFORNIA  ,6097,Sonoma County    ,2020-04-17,,06/18/2020,,4-17-2020,1,4,8.0,2020-12-31,Sonoma,California,19055.0,192.0,Sonoma,California,38.5283,-122.8874
6.0,CALIFORNIA  ,6045,Mendocino County    ,2020-05-01,,06/18/2020,,5-1-2020,1,5,7.0,2020-12-31,Mendocino,California,2558.0,26.0,Mendocino,California,39.4402,-123.3915
6.0,CALIFORNIA  ,6015,Del Norte County   ,2020-05-15,,06/18/2020,,5-15-2020,1,5,7.0,2020-12-31,Del Norte,California,760.0,2.0,Del Norte,California,41.7431,-123.8972
6.0,CALIFORNIA  ,6023,Humboldt County    ,2020-04-22,,06/18/2020,,4-22-2020,1,4,8.0,2020-12-31,Humboldt,California,1764.0,22.0,Humboldt,California,40.6993,-123.8756
6.0,CALIFORNIA  ,6033,Lake County    ,2020-05-05,,06/18/2020,,5-5-2020,1,5,7.0,2020-12-31,Lake,California,1817.0,23.0,Lake,California,39.0996,-122.7532
6.0,CALIFORNIA  ,6081,San Mateo County   ,2020-04-22,,06/18/2020,,4-22-2020,1,4,8.0,2020-12-31,San Mateo,California,24589.0,227.0,San Mateo,California,37.4229,-122.329
6.0,CALIFORNIA  ,6083,Santa Barbara County   ,2020-05-26, 6/30/2020,06/18/2020,,5-26-2020,1,5,7.0,2020-12-31,Santa Barbara,California,17391.0,160.0,Santa Barbara,California,34.6729,-120.0165
6.0,CALIFORNIA  ,6053,Monterey County    ,2020-04-30,,06/18/2020,,4-30-2020,1,4,8.0,2020-12-31,Monterey,California,27859.0,193.0,Monterey,California,36.2172,-121.2392
6.0,CALIFORNIA  ,6091,Sierra County    ,2020-05-01,,06/18/2020,,5-1-2020,1,5,7.0,2020-12-31,Sierra,California,24.0,0.0,Sierra,California,39.5803,-120.516
8.0,COLORADO  ,8049,Grand County    ,2020-06-26,,07/17/2020,08/16/2020,6-26-2020,1,6,6.0,2020-12-31,Grand,Colorado,660.0,4.0,Grand,Colorado,40.1026,-106.1183
8.0,COLORADO  ,8013,Boulder County    ,2020-05-09,,07/17/2020,08/16/2020,5-9-2020,1,5,7.0,2020-12-31,Boulder,Colorado,14706.0,182.0,Boulder,Colorado,40.0925,-105.3577
8.0,COLORADO  ,8019,Clear Creek County   ,2020-07-02,,07/17/2020,08/16/2020,7-2-2020,1,7,5.0,2020-12-31,Clear Creek,Colorado,279.0,2.0,Clear Creek,Colorado,39.6891,-105.6444
8.0,COLORADO  ,8091,Ouray County    ,2020-07-03,,07/17/2020,08/16/2020,7-3-2020,1,7,5.0,2020-12-31,Ouray,Colorado,154.0,3.0,Ouray,Colorado,38.1555,-107.7693
8.0,COLORADO  ,8005,Arapahoe County    ,2020-07-24,,07/17/2020,08/16/2020,7-17-2020,1,7,5.0,2020-12-31,Arapahoe,Colorado,38457.0,590.0,Arapahoe,Colorado,39.6498,-104.3392
8.0,COLORADO  ,8059,Jefferson County    ,2020-07-14, 7/22/2020,07/17/2020,08/16/2020,7-14-2020,1,7,5.0,2020-12-31,Jefferson,Colorado,29565.0,612.0,Jefferson,Colorado,39.5864,-105.2505
8.0,COLORADO  ,8115,Sedgwick County    ,2020-07-10,,07/17/2020,08/16/2020,7-10-2020,1,7,5.0,2020-12-31,Sedgwick,Colorado,126.0,2.0,Sedgwick,Colorado,40.8759,-102.3518
8.0,COLORADO  ,8107,Routt County    ,2020-04-10,,07/17/2020,08/16/2020,4-10-2020,1,4,8.0,2020-12-31,Routt,Colorado,1042.0,18.0,Routt,Colorado,40.4851,-106.9913
8.0,COLORADO  ,8097,Pitkin County    ,2020-05-04,,07/17/2020,08/16/2020,5-4-2020,1,5,7.0,2020-12-31,Pitkin,Colorado,1047.0,4.0,Pitkin,Colorado,39.2171,-106.9166
8.0,COLORADO  ,8015,Chaffee County    ,2020-07-15,,07/17/2020,08/16/2020,7-15-2020,1,7,5.0,2020-12-31,Chaffee,Colorado,1020.0,21.0,Chaffee,Colorado,38.747,-106.1941
8.0,COLORADO  ,8001,Adams County    ,2020-07-24,,07/17/2020,08/16/2020,7-17-2020,1,7,5.0,2020-12-31,Adams,Colorado,40344.0,529.0,Adams,Colorado,39.8736,-104.3378
8.0,COLORADO  ,8037,Eagle County    ,2020-07-03,,07/17/2020,08/16/2020,7-3-2020,1,7,5.0,2020-12-31,Eagle,Colorado,3374.0,16.0,Eagle,Colorado,39.6278,-106.6954
8.0,COLORADO  ,8069,Larimer County    ,2020-05-03,,07/17/2020,08/16/2020,5-3-2020,1,5,7.0,2020-12-31,Larimer,Colorado,15099.0,142.0,Larimer,Colorado,40.6664,-105.4611
8.0,COLORADO  ,8111,San Juan County   ,2020-05-16,,07/17/2020,08/16/2020,5-16-2020,1,5,7.0,2020-12-31,San Juan,Colorado,27.0,0.0,San Juan,Colorado,37.764,-107.6762
8.0,COLORADO  ,8031,Denver County    ,2020-05-06,,07/17/2020,08/16/2020,5-6-2020,1,5,7.0,2020-12-31,Denver,Colorado,47711.0,674.0,Denver,Colorado,39.7621,-104.8759
8.0,COLORADO  ,8051,Gunnison County    ,2020-06-08,,07/17/2020,08/16/2020,6-8-2020,1,6,6.0,2020-12-31,Gunnison,Colorado,696.0,6.0,Gunnison,Colorado,38.6668,-107.0316
8.0,COLORADO  ,8117,Summit County    ,2020-04-25,,07/17/2020,08/16/2020,4-25-2020,1,4,8.0,2020-12-31,Summit,Colorado,2134.0,5.0,Summit,Colorado,39.6342,-106.1164
9.0,CONNECTICUT  ,9009,New Haven County   ,2020-04-17,,04/17/2020,,4-17-2020,1,4,8.0,2020-12-31,New Haven,Connecticut,47375.0,1529.0,New Haven,Connecticut,41.4105,-72.9321
11.0,DISTRICT OF COLUMBIA,11001,District of Columbia   ,2020-05-16,,04/17/2020,10/09/2020,4-17-2020,1,5,7.0,2020-12-31,District of Columbia,District of Columbia,28983.0,786.0,District of Columbia,District of Columbia,38.9047,-77.0163
12.0,FLORIDA  ,12131,Walton County    ,2020-07-20,,,,7-20-2020,1,7,5.0,2020-12-31,Walton,Florida,4891.0,48.0,Walton,Florida,30.6436,-86.1697
12.0,FLORIDA  ,12021,Collier County    ,2020-07-21,,,,7-21-2020,1,7,5.0,2020-12-31,Collier,Florida,22506.0,332.0,Collier,Florida,26.1107,-81.3476
12.0,FLORIDA  ,12031,Duval County    ,2020-06-29,,,,6-29-2020,1,6,6.0,2020-12-31,Duval,Florida,61321.0,725.0,Duval,Florida,30.3316,-81.6708
12.0,FLORIDA  ,12057,Hillsborough County    ,2020-06-22,,,,6-22-2020,1,6,6.0,2020-12-31,Hillsborough,Florida,77118.0,1071.0,Hillsborough,Florida,27.9291,-82.3092
12.0,FLORIDA  ,12073,Leon County    ,2020-06-25,,,,6-25-2020,1,6,6.0,2020-12-31,Leon,Florida,19573.0,175.0,Leon,Florida,30.458,-84.2779
12.0,FLORIDA  ,12117,Seminole County    ,2020-07-01,,,,7-1-2020,1,7,5.0,2020-12-31,Seminole,Florida,18083.0,314.0,Seminole,Florida,28.717,-81.2363
12.0,FLORIDA  ,12115,Sarasota County    ,2020-07-01,,,,7-1-2020,1,7,5.0,2020-12-31,Sarasota,Florida,18607.0,509.0,Sarasota,Florida,27.1845,-82.3315
12.0,FLORIDA  ,12111,St. Lucie County   ,2020-07-01,,,,7-1-2020,1,7,5.0,2020-12-31,St. Lucie,Florida,14278.0,405.0,St. Lucie,Florida,27.3773,-80.472
12.0,FLORIDA  ,12101,Pasco County    ,2020-06-25,,,,6-25-2020,1,6,6.0,2020-12-31,Pasco,Florida,21932.0,376.0,Pasco,Florida,28.3091,-82.3932
12.0,FLORIDA  ,12069,Lake County    ,2020-07-10,,,,7-10-2020,1,7,5.0,2020-12-31,Lake,Florida,15559.0,295.0,Lake,Florida,28.7615,-81.7113
12.0,FLORIDA  ,12025,Dade County    ,2020-07-01,,,,7-1-2020,1,7,5.0,,,,,,,,,
12.0,FLORIDA  ,12061,Indian River County   ,2020-06-29,,,,6-29-2020,1,6,6.0,2020-12-31,Indian River,Florida,6875.0,159.0,Indian River,Florida,27.6943,-80.6062
12.0,FLORIDA  ,12005,Bay County    ,2020-05-07,,,,5-7-2020,1,5,7.0,2020-12-31,Bay,Florida,11907.0,209.0,Bay,Florida,30.2652,-85.6203
12.0,FLORIDA  ,12007,Bradford County    ,2020-05-14,,,,5-14-2020,1,5,7.0,2020-12-31,Bradford,Florida,2180.0,23.0,Bradford,Florida,29.9499,-82.1688
12.0,FLORIDA  ,12089,Nassau County    ,2020-07-03,,,,7-3-2020,1,7,5.0,2020-12-31,Nassau,Florida,4775.0,66.0,Nassau,Florida,30.6106,-81.8016
12.0,FLORIDA  ,12039,Gadsden County    ,2020-04-20,,,,4-20-2020,1,4,8.0,2020-12-31,Gadsden,Florida,3987.0,59.0,Gadsden,Florida,30.5795,-84.6136
12.0,FLORIDA  ,12037,Franklin County    ,2020-07-08,,,,7-8-2020,1,7,5.0,2020-12-31,Franklin,Florida,900.0,4.0,Franklin,Florida,29.8765,-84.814
12.0,FLORIDA  ,12099,Palm Beach County   ,2020-06-25,,,,6-25-2020,1,6,6.0,2020-12-31,Palm Beach,Florida,82888.0,1895.0,Palm Beach,Florida,26.6476,-80.4655
12.0,FLORIDA  ,12119,Sumter County    ,2020-06-20,,,,6-20-2020,1,6,6.0,2020-12-31,Sumter,Florida,5085.0,120.0,Sumter,Florida,28.7048,-82.081
12.0,FLORIDA  ,12027,DeSoto County    ,2020-07-13,,,,7-13-2020,1,7,5.0,2020-12-31,DeSoto,Florida,2898.0,56.0,DeSoto,Florida,27.1864,-81.8095
12.0,FLORIDA  ,12087,Monroe County    ,2020-06-26,,,,6-26-2020,1,6,6.0,2020-12-31,Monroe,Florida,4226.0,35.0,Monroe,Florida,25.3156,-81.1106
12.0,FLORIDA  ,12095,Orange County    ,2020-06-18,,,,6-18-2020,1,6,6.0,2020-12-31,Orange,Florida,76457.0,748.0,Orange,Florida,28.5144,-81.3235
12.0,FLORIDA  ,12103,Pinellas County    ,2020-06-24,,,,6-24-2020,1,6,6.0,2020-12-31,Pinellas,Florida,44975.0,1049.0,Pinellas,Florida,27.9196,-82.7256
12.0,FLORIDA  ,12001,Alachua County    ,2020-07-01,,,,7-1-2020,1,7,5.0,2020-12-31,Alachua,Florida,15866.0,129.0,Alachua,Florida,29.6747,-82.3577
12.0,FLORIDA  ,12065,Jefferson County    ,2020-06-29,,,,6-29-2020,1,6,6.0,2020-12-31,Jefferson,Florida,994.0,16.0,Jefferson,Florida,30.4375,-83.8953
12.0,FLORIDA  ,12085,Martin County    ,2020-06-19,,,,6-19-2020,1,6,6.0,2020-12-31,Martin,Florida,7839.0,210.0,Martin,Florida,27.0775,-80.4315
12.0,FLORIDA  ,12097,Osceola County    ,2020-04-13,,,,4-13-2020,1,4,8.0,2020-12-31,Osceola,Florida,25344.0,288.0,Osceola,Florida,28.0627,-81.1495
12.0,FLORIDA  ,12011,Broward County    ,2020-04-10,,,,4-10-2020,1,4,8.0,2020-12-31,Broward,Florida,137610.0,1847.0,Broward,Florida,26.1523,-80.4871
13.0,GEORGIA  ,13061,Clay County    ,2020-07-19,"August 23rdh, 2020",,,7-19-2020,1,7,5.0,2020-12-31,Clay,Georgia,177.0,3.0,Clay,Georgia,31.6263,-84.9801
13.0,GEORGIA  ,13009,Baldwin County    ,2020-07-15,,,,7-15-2020,1,7,5.0,2020-12-31,Baldwin,Georgia,3203.0,75.0,Baldwin,Georgia,33.0692,-83.2496
13.0,GEORGIA  ,13193,Macon County    ,2020-07-21,,,,7-21-2020,1,7,5.0,2020-12-31,Macon,Georgia,464.0,16.0,Macon,Georgia,32.3584,-84.0425
13.0,GEORGIA  ,13121,Fulton County    ,2020-07-08,,,,7-8-2020,1,7,5.0,2020-12-31,Fulton,Georgia,56903.0,790.0,Fulton,Georgia,33.7903,-84.467
13.0,GEORGIA  ,13059,Clarke County    ,2020-07-09,"August 4th, 2020",,,7-9-2020,1,7,5.0,2020-12-31,Clarke,Georgia,10088.0,66.0,Clarke,Georgia,33.9512,-83.3673
13.0,GEORGIA  ,13245,Richmond County    ,2020-07-03,"August 2nd,2020",,,7-3-2020,1,7,5.0,2020-12-31,Richmond,Georgia,14739.0,253.0,Richmond,Georgia,33.3596,-82.0735
13.0,GEORGIA  ,13089,DeKalb County    ,2020-07-12,,,,7-12-2020,1,7,5.0,2020-12-31,DeKalb,Georgia,38320.0,531.0,DeKalb,Georgia,33.7715,-84.2264
13.0,GEORGIA  ,13103,Effingham County    ,2020-07-08,,,,7-8-2020,1,7,5.0,2020-12-31,Effingham,Georgia,2702.0,35.0,Effingham,Georgia,32.3673,-81.3413
13.0,GEORGIA  ,13179,Liberty County    ,2020-07-02,,,,7-2-2020,1,7,5.0,2020-12-31,Liberty,Georgia,1938.0,31.0,Liberty,Georgia,31.8281,-81.4947
13.0,GEORGIA  ,13021,Bibb County    ,2020-07-15,,,,7-15-2020,1,7,5.0,2020-12-31,Bibb,Georgia,10126.0,261.0,Bibb,Georgia,32.8065,-83.6974
15.0,HAWAII  ,15001,Hawaii County    ,2020-05-06,,04/17/2020,,4-17-2020,1,5,7.0,2020-12-31,Hawaii,Hawaii,1908.0,45.0,Hawaii,Hawaii,19.5987,-155.5185
15.0,HAWAII  ,15009,Maui County    ,2020-06-08,,04/17/2020,,4-17-2020,1,6,6.0,2020-12-31,Maui,Hawaii,1370.0,17.0,Maui,Hawaii,20.8596,-156.5648
15.0,HAWAII  ,15003,Honolulu County    ,2020-04-20,,04/17/2020,,4-17-2020,1,4,8.0,2020-12-31,Honolulu,Hawaii,18034.0,223.0,Honolulu,Hawaii,21.5008,-158.1053
15.0,HAWAII  ,15007,Kauai County    ,2020-04-14,,04/17/2020,,4-14-2020,1,4,8.0,2020-12-31,Kauai,Hawaii,146.0,1.0,Kauai,Hawaii,22.0396,-159.5963
16.0,IDAHO  ,16075,Payette County    ,2020-07-14,,,,7-14-2020,1,7,5.0,2020-12-31,Payette,Idaho,2064.0,24.0,Payette,Idaho,44.0067,-116.7608
16.0,IDAHO  ,16085,Valley County    ,2020-07-14,,,,7-14-2020,1,7,5.0,2020-12-31,Valley,Idaho,496.0,3.0,Valley,Idaho,44.7666,-115.5663
16.0,IDAHO  ,16011,Bingham County    ,2020-06-22,,,,6-22-2020,1,6,6.0,2020-12-31,Bingham,Idaho,3649.0,46.0,Bingham,Idaho,43.2166,-112.3981
16.0,IDAHO  ,16019,Bonneville County    ,2020-07-23,  8/6/2020,,,7-23-2020,1,7,5.0,2020-12-31,Bonneville,Idaho,10383.0,117.0,Bonneville,Idaho,43.3877,-111.6148
16.0,IDAHO  ,16013,Blaine County    ,2020-07-07,,,,7-7-2020,1,7,5.0,2020-12-31,Blaine,Idaho,1562.0,13.0,Blaine,Idaho,43.4119,-113.9802
16.0,IDAHO  ,16081,Teton County    ,2020-07-16,,,,7-16-2020,1,7,5.0,2020-12-31,Teton,Idaho,723.0,2.0,Teton,Idaho,43.7594,-111.2076
16.0,IDAHO  ,16001,Ada County    ,2020-07-14,,,,7-14-2020,1,7,5.0,2020-12-31,Ada,Idaho,38417.0,355.0,Ada,Idaho,43.4511,-116.2412
16.0,IDAHO  ,16015,Boise County    ,2020-07-14,,,,7-14-2020,1,7,5.0,2020-12-31,Boise,Idaho,245.0,2.0,Boise,Idaho,43.9891,-115.7304
16.0,IDAHO  ,16055,Kootenai County    ,2020-07-23,,,,7-23-2020,1,7,5.0,2020-12-31,Kootenai,Idaho,12656.0,116.0,Kootenai,Idaho,47.6744,-116.7018
16.0,IDAHO  ,16039,Elmore County    ,2020-07-14,,,,7-14-2020,1,7,5.0,2020-12-31,Elmore,Idaho,1368.0,9.0,Elmore,Idaho,43.354,-115.4693
17.0,ILLINOIS  ,17185,Wabash County    ,2020-07-16,,05/01/2020,,5-1-2020,1,7,5.0,2020-12-31,Wabash,Illinois,1048.0,13.0,Wabash,Illinois,38.4461,-87.8443
17.0,ILLINOIS  ,17001,Adams County    ,2020-05-01,,05/01/2020,,5-1-2020,1,5,7.0,2020-12-31,Adams,Illinois,6582.0,82.0,Adams,Illinois,39.9879,-91.1885
17.0,ILLINOIS  ,17003,Alexander County    ,2020-05-01,,05/01/2020,,5-1-2020,1,5,7.0,2020-12-31,Alexander,Illinois,341.0,7.0,Alexander,Illinois,37.1915,-89.3375
17.0,ILLINOIS  ,17183,Vermilion County    ,2020-05-26,,05/01/2020,,5-1-2020,1,5,7.0,2020-12-31,Vermilion,Illinois,6429.0,90.0,Vermilion,Illinois,40.1834,-87.7328
17.0,ILLINOIS  ,17203,Woodford County    ,2020-06-01,,05/01/2020,,5-1-2020,1,6,6.0,2020-12-31,Woodford,Illinois,2818.0,58.0,Woodford,Illinois,40.7882,-89.2111
17.0,ILLINOIS  ,17189,Washington County    ,2020-05-01,,05/01/2020,,5-1-2020,1,5,7.0,2020-12-31,Washington,Illinois,1225.0,24.0,Washington,Illinois,38.3522,-89.4105
17.0,ILLINOIS  ,17097,Lake County    ,2020-07-20,,05/01/2020,,5-1-2020,1,7,5.0,2020-12-31,Lake,Illinois,48300.0,818.0,Lake,Illinois,42.3233,-88.0037
17.0,ILLINOIS  ,17187,Warren County    ,2020-06-01,,05/01/2020,,5-1-2020,1,6,6.0,2020-12-31,Warren,Illinois,1496.0,36.0,Warren,Illinois,40.8488,-90.615
17.0,ILLINOIS  ,17201,Winnebago County    ,2020-06-22,,05/01/2020,,5-1-2020,1,6,6.0,2020-12-31,Winnebago,Illinois,24019.0,373.0,Winnebago,Illinois,42.3363,-89.1609
17.0,ILLINOIS  ,17181,Union County    ,2020-07-10,,05/01/2020,,5-1-2020,1,7,5.0,2020-12-31,Union,Illinois,1697.0,31.0,Union,Illinois,37.4713,-89.2551
17.0,ILLINOIS  ,17093,Kendall County    ,2020-04-23,,05/01/2020,,4-23-2020,1,4,8.0,2020-12-31,Kendall,Illinois,8771.0,73.0,Kendall,Illinois,41.5906,-88.4288
17.0,ILLINOIS  ,17169,Schuyler County    ,2020-05-01,,05/01/2020,,5-1-2020,1,5,7.0,2020-12-31,Schuyler,Illinois,543.0,14.0,Schuyler,Illinois,40.158,-90.6151
17.0,ILLINOIS  ,17197,Will County    ,2020-07-11,,05/01/2020,,5-1-2020,1,7,5.0,2020-12-31,Will,Illinois,52293.0,780.0,Will,Illinois,41.445,-87.9786
17.0,ILLINOIS  ,17135,Montgomery County    ,2020-04-01,,05/01/2020,,4-1-2020,1,4,8.0,2020-12-31,Montgomery,Illinois,2166.0,24.0,Montgomery,Illinois,39.231,-89.4789
17.0,ILLINOIS  ,17193,White County    ,2020-06-01,,05/01/2020,,5-1-2020,1,6,6.0,2020-12-31,White,Illinois,1122.0,27.0,White,Illinois,38.0875,-88.1796
18.0,INDIANA  ,18097,Marion County    ,2020-07-09,,07/27/2020,,7-9-2020,1,7,5.0,2020-12-31,Marion,Indiana,70801.0,1206.0,Marion,Indiana,39.7817,-86.1385
18.0,INDIANA  ,18105,Monroe County    ,2020-07-17,,07/27/2020,,7-17-2020,1,7,5.0,2020-12-31,Monroe,Indiana,8007.0,98.0,Monroe,Indiana,39.1609,-86.5231
18.0,INDIANA  ,18157,Tippecanoe County    ,2020-07-13,,07/27/2020,,7-13-2020,1,7,5.0,2020-12-31,Tippecanoe,Indiana,15018.0,88.0,Tippecanoe,Indiana,40.3886,-86.8941
18.0,INDIANA  ,18141,St. Joseph County   ,2020-05-04,  9/7/2020,07/27/2020,,5-4-2020,1,5,7.0,2020-12-31,St. Joseph,Indiana,24264.0,367.0,St. Joseph,Indiana,41.6167,-86.2899
18.0,INDIANA  ,18087,Lagrange County    ,2020-06-15,,07/27/2020,,6-15-2020,1,6,6.0,2020-12-31,LaGrange,Indiana,2045.0,56.0,LaGrange,Indiana,41.6426,-85.4265
18.0,INDIANA  ,18095,Madison County    ,2020-07-07,,07/27/2020,,7-7-2020,1,7,5.0,2020-12-31,Madison,Indiana,8994.0,189.0,Madison,Indiana,40.1616,-85.7194
18.0,INDIANA  ,18099,Marshall County    ,2020-07-20,,07/27/2020,,7-20-2020,1,7,5.0,2020-12-31,Marshall,Indiana,4469.0,77.0,Marshall,Indiana,41.3248,-86.2618
18.0,INDIANA  ,18089,Lake County    ,2020-07-21,,07/27/2020,,7-21-2020,1,7,5.0,2020-12-31,Lake,Indiana,39901.0,632.0,Lake,Indiana,41.4171,-87.3822
18.0,INDIANA  ,18057,Hamilton County    ,2020-07-24,,07/27/2020,,7-24-2020,1,7,5.0,2020-12-31,Hamilton,Indiana,23956.0,288.0,Hamilton,Indiana,40.0725,-86.052
18.0,INDIANA  ,18163,Vanderburgh County    ,2020-07-15,,07/27/2020,,7-15-2020,1,7,5.0,2020-12-31,Vanderburgh,Indiana,15554.0,203.0,Vanderburgh,Indiana,38.025,-87.5858
18.0,INDIANA  ,18003,Allen County    ,2020-07-17,,07/27/2020,,7-17-2020,1,7,5.0,2020-12-31,Allen,Indiana,28059.0,508.0,Allen,Indiana,41.0909,-85.0666
18.0,INDIANA  ,18131,Pulaski County    ,2020-05-01,,07/27/2020,,5-1-2020,1,5,7.0,2020-12-31,Pulaski,Indiana,851.0,32.0,Pulaski,Indiana,41.0419,-86.6988
18.0,INDIANA  ,18145,Shelby County    ,2020-07-03,,07/27/2020,,7-3-2020,1,7,5.0,2020-12-31,Shelby,Indiana,4202.0,82.0,Shelby,Indiana,39.5237,-85.7917
18.0,INDIANA  ,18149,Starke County    ,2020-07-22,,07/27/2020,,7-22-2020,1,7,5.0,2020-12-31,Starke,Indiana,1558.0,43.0,Starke,Indiana,41.2809,-86.6476
18.0,INDIANA  ,18011,Boone County    ,2020-06-20,,07/27/2020,,6-20-2020,1,6,6.0,2020-12-31,Boone,Indiana,4472.0,64.0,Boone,Indiana,40.0508,-86.4687
18.0,INDIANA  ,18039,Elkhart County    ,2020-06-30,,07/27/2020,,6-30-2020,1,6,6.0,2020-12-31,Elkhart,Indiana,22743.0,325.0,Elkhart,Indiana,41.5974,-85.8587
18.0,INDIANA  ,18091,La Porte County   ,2020-07-16,,07/27/2020,,7-16-2020,1,7,5.0,2020-12-31,LaPorte,Indiana,7561.0,139.0,LaPorte,Indiana,41.546,-86.74
19.0,IOWA  ,19103,Johnson County    ,2020-07-21,,,,7-21-2020,1,7,5.0,2020-12-31,Johnson,Iowa,11147.0,47.0,Johnson,Iowa,41.6715,-91.5881
19.0,IOWA  ,19139,Muscatine County    ,2020-07-06,,,,7-6-2020,1,7,5.0,2020-12-31,Muscatine,Iowa,3574.0,75.0,Muscatine,Iowa,41.4839,-91.1127
20.0,KANSAS  ,20011,Bourbon County    ,2020-07-03,,07/03/2020,,7-3-2020,1,7,5.0,2020-12-31,Bourbon,Kansas,927.0,3.0,Bourbon,Kansas,37.8552,-94.8493
20.0,KANSAS  ,20041,Dickinson County    ,2020-07-03,,07/03/2020,,7-3-2020,1,7,5.0,2020-12-31,Dickinson,Kansas,1239.0,16.0,Dickinson,Kansas,38.8665,-97.1527
20.0,KANSAS  ,20047,Edwards County    ,2020-07-03,,07/03/2020,,7-3-2020,1,7,5.0,2020-12-31,Edwards,Kansas,240.0,0.0,Edwards,Kansas,37.8876,-99.3122
20.0,KANSAS  ,20045,Douglas County    ,2020-07-03,,07/03/2020,,7-3-2020,1,7,5.0,2020-12-31,Douglas,Kansas,6482.0,34.0,Douglas,Kansas,38.8847,-95.2926
20.0,KANSAS  ,20169,Saline County    ,2020-07-03,,07/03/2020,,7-3-2020,1,7,5.0,2020-12-31,Saline,Kansas,4436.0,58.0,Saline,Kansas,38.7838,-97.65
20.0,KANSAS  ,20015,Butler County    ,2020-07-03,  7/6/2020,07/03/2020,,7-3-2020,1,7,5.0,2020-12-31,Butler,Kansas,5314.0,23.0,Butler,Kansas,37.7812,-96.839
20.0,KANSAS  ,20179,Sheridan County    ,2020-07-09,,07/03/2020,,7-3-2020,1,7,5.0,2020-12-31,Sheridan,Kansas,383.0,0.0,Sheridan,Kansas,39.3503,-100.4418
20.0,KANSAS  ,20005,Atchison County    ,2020-07-03,,07/03/2020,,7-3-2020,1,7,5.0,2020-12-31,Atchison,Kansas,1251.0,10.0,Atchison,Kansas,39.5318,-95.3135
20.0,KANSAS  ,20157,Republic County    ,2020-07-14,,07/03/2020,,7-3-2020,1,7,5.0,2020-12-31,Republic,Kansas,560.0,11.0,Republic,Kansas,39.8278,-97.6506
20.0,KANSAS  ,20023,Cheyenne County    ,2020-07-03,  7/7/2020,07/03/2020,,7-3-2020,1,7,5.0,2020-12-31,Cheyenne,Kansas,275.0,10.0,Cheyenne,Kansas,39.7859,-101.7313
20.0,KANSAS  ,20123,Mitchell County    ,2020-07-03,,07/03/2020,,7-3-2020,1,7,5.0,2020-12-31,Mitchell,Kansas,386.0,0.0,Mitchell,Kansas,39.3933,-98.2094
20.0,KANSAS  ,20125,Montgomery County    ,2020-07-03,,07/03/2020,,7-3-2020,1,7,5.0,2020-12-31,Montgomery,Kansas,2244.0,6.0,Montgomery,Kansas,37.1925,-95.7429
20.0,KANSAS  ,20037,Crawford County    ,2020-07-03,,07/03/2020,,7-3-2020,1,7,5.0,2020-12-31,Crawford,Kansas,3379.0,32.0,Crawford,Kansas,37.5073,-94.8518
20.0,KANSAS  ,20021,Cherokee County    ,2020-07-03,  7/6/2020,07/03/2020,,7-3-2020,1,7,5.0,2020-12-31,Cherokee,Kansas,1709.0,16.0,Cherokee,Kansas,37.1693,-94.8463
20.0,KANSAS  ,20013,Brown County    ,2020-07-03,,07/03/2020,,7-3-2020,1,7,5.0,2020-12-31,Brown,Kansas,1023.0,18.0,Brown,Kansas,39.8265,-95.5642
20.0,KANSAS  ,20091,Johnson County    ,2020-07-03,,07/03/2020,,7-3-2020,1,7,5.0,2020-12-31,Johnson,Kansas,38865.0,452.0,Johnson,Kansas,38.8838,-94.8223
20.0,KANSAS  ,20089,Jewell County    ,2020-07-03,,07/03/2020,,7-3-2020,1,7,5.0,2020-12-31,Jewell,Kansas,193.0,3.0,Jewell,Kansas,39.7847,-98.2183
20.0,KANSAS  ,20059,Franklin County    ,2020-07-03,,07/03/2020,,7-3-2020,1,7,5.0,2020-12-31,Franklin,Kansas,1757.0,18.0,Franklin,Kansas,38.5645,-95.2859
20.0,KANSAS  ,20209,Wyandotte County    ,2020-07-03,,07/03/2020,,7-3-2020,1,7,5.0,2020-12-31,Wyandotte,Kansas,15576.0,198.0,Wyandotte,Kansas,39.1146,-94.7646
20.0,KANSAS  ,20001,Allen County    ,2020-07-03,,07/03/2020,,7-3-2020,1,7,5.0,2020-12-31,Allen,Kansas,653.0,1.0,Allen,Kansas,37.8857,-95.3014
21.0,KENTUCKY  ,21051,Clay County    ,2020-07-10,8/23/2020(indoor),07/10/2020,08/09/2020,7-10-2020,1,7,5.0,2020-12-31,Clay,Kentucky,1623.0,8.0,Clay,Kentucky,37.1597,-83.7147
21.0,KENTUCKY  ,21009,Barren County    ,2020-07-09,,07/10/2020,08/09/2020,7-9-2020,1,7,5.0,2020-12-31,Barren,Kentucky,2563.0,35.0,Barren,Kentucky,36.9656,-85.9337
21.0,KENTUCKY  ,21239,Woodford County    ,2020-07-10,,07/10/2020,08/09/2020,7-10-2020,1,7,5.0,2020-12-31,Woodford,Kentucky,1253.0,1.0,Woodford,Kentucky,38.0424,-84.7436
21.0,KENTUCKY  ,21037,Campbell County    ,2020-07-10,,07/10/2020,08/09/2020,7-10-2020,1,7,5.0,2020-12-31,Campbell,Kentucky,4650.0,35.0,Campbell,Kentucky,38.9465,-84.3795
21.0,KENTUCKY  ,21027,Breckinridge County    ,2020-07-10,,07/10/2020,08/09/2020,7-10-2020,1,7,5.0,2020-12-31,Breckinridge,Kentucky,658.0,5.0,Breckinridge,Kentucky,37.7734,-86.4293
21.0,KENTUCKY  ,21053,Clinton County    ,2020-07-10,,07/10/2020,08/09/2020,7-10-2020,1,7,5.0,2020-12-31,Clinton,Kentucky,923.0,20.0,Clinton,Kentucky,36.7274,-85.1362
21.0,KENTUCKY  ,21175,Morgan County    ,2020-07-10,,07/10/2020,08/09/2020,7-10-2020,1,7,5.0,2020-12-31,Morgan,Kentucky,518.0,0.0,Morgan,Kentucky,37.9223,-83.2589
21.0,KENTUCKY  ,21077,Gallatin County    ,2020-07-10,,07/10/2020,08/09/2020,7-10-2020,1,7,5.0,2020-12-31,Gallatin,Kentucky,426.0,9.0,Gallatin,Kentucky,38.7569,-84.8593
21.0,KENTUCKY  ,21181,Nicholas County    ,2020-07-10,,07/10/2020,08/09/2020,7-10-2020,1,7,5.0,2020-12-31,Nicholas,Kentucky,255.0,3.0,Nicholas,Kentucky,38.3356,-84.0153
21.0,KENTUCKY  ,21121,Knox County    ,2020-07-03,,07/10/2020,08/09/2020,7-3-2020,1,7,5.0,2020-12-31,Knox,Kentucky,1763.0,10.0,Knox,Kentucky,36.8906,-83.854
21.0,KENTUCKY  ,21237,Wolfe County    ,2020-07-10,,07/10/2020,08/09/2020,7-10-2020,1,7,5.0,2020-12-31,Wolfe,Kentucky,300.0,3.0,Wolfe,Kentucky,37.7393,-83.4932
21.0,KENTUCKY  ,21179,Nelson County    ,2020-07-10,,07/10/2020,08/09/2020,7-10-2020,1,7,5.0,2020-12-31,Nelson,Kentucky,2855.0,17.0,Nelson,Kentucky,37.8052,-85.466
21.0,KENTUCKY  ,21201,Robertson County    ,2020-07-10,,07/10/2020,08/09/2020,7-10-2020,1,7,5.0,2020-12-31,Robertson,Kentucky,138.0,5.0,Robertson,Kentucky,38.5188,-84.052
21.0,KENTUCKY  ,21221,Trigg County    ,2020-07-10,,07/10/2020,08/09/2020,7-10-2020,1,7,5.0,2020-12-31,Trigg,Kentucky,658.0,3.0,Trigg,Kentucky,36.8064,-87.8734
21.0,KENTUCKY  ,21115,Johnson County    ,2020-07-10,,07/10/2020,08/09/2020,7-10-2020,1,7,5.0,2020-12-31,Johnson,Kentucky,1120.0,15.0,Johnson,Kentucky,37.8466,-82.8315
21.0,KENTUCKY  ,21137,Lincoln County    ,2020-07-10,,07/10/2020,08/09/2020,7-10-2020,1,7,5.0,2020-12-31,Lincoln,Kentucky,1443.0,23.0,Lincoln,Kentucky,37.4554,-84.6608
21.0,KENTUCKY  ,21021,Boyle County    ,2020-07-10,,07/10/2020,08/09/2020,7-10-2020,1,7,5.0,2020-12-31,Boyle,Kentucky,2162.0,2.0,Boyle,Kentucky,37.6244,-84.8668
21.0,KENTUCKY  ,21209,Scott County    ,2020-07-10,,07/10/2020,08/09/2020,7-10-2020,1,7,5.0,2020-12-31,Scott,Kentucky,2457.0,23.0,Scott,Kentucky,38.2915,-84.5839
21.0,KENTUCKY  ,21101,Henderson County    ,2020-07-10,,07/10/2020,08/09/2020,7-10-2020,1,7,5.0,2020-12-31,Henderson,Kentucky,2939.0,49.0,Henderson,Kentucky,37.7958,-87.573
21.0,KENTUCKY  ,21231,Wayne County    ,2020-07-10,,07/10/2020,08/09/2020,7-10-2020,1,7,5.0,2020-12-31,Wayne,Kentucky,1455.0,20.0,Wayne,Kentucky,36.8013,-84.8286
21.0,KENTUCKY  ,21087,Green County    ,2020-07-10,,07/10/2020,08/09/2020,7-10-2020,1,7,5.0,2020-12-31,Green,Kentucky,811.0,12.0,Green,Kentucky,37.264,-85.5531
21.0,KENTUCKY  ,21173,Montgomery County    ,2020-07-10,,07/10/2020,08/09/2020,7-10-2020,1,7,5.0,2020-12-31,Montgomery,Kentucky,1378.0,12.0,Montgomery,Kentucky,38.0335,-83.9131
21.0,KENTUCKY  ,21227,Warren County    ,2020-07-10,,07/10/2020,08/09/2020,7-10-2020,1,7,5.0,2020-12-31,Warren,Kentucky,10194.0,84.0,Warren,Kentucky,36.9936,-86.4238
21.0,KENTUCKY  ,21147,McCreary County    ,2020-07-10,,07/10/2020,08/09/2020,7-10-2020,1,7,5.0,2020-12-31,McCreary,Kentucky,1164.0,8.0,McCreary,Kentucky,36.7371,-84.4842
21.0,KENTUCKY  ,21163,Meade County    ,2020-07-10,,07/10/2020,08/09/2020,7-10-2020,1,7,5.0,2020-12-31,Meade,Kentucky,1133.0,4.0,Meade,Kentucky,37.9697,-86.217
21.0,KENTUCKY  ,21197,Powell County    ,2020-07-10,,07/10/2020,08/09/2020,7-10-2020,1,7,5.0,2020-12-31,Powell,Kentucky,686.0,0.0,Powell,Kentucky,37.8311,-83.8237
21.0,KENTUCKY  ,21199,Pulaski County    ,2020-07-10,,07/10/2020,08/09/2020,7-10-2020,1,7,5.0,2020-12-31,Pulaski,Kentucky,3875.0,62.0,Pulaski,Kentucky,37.1039,-84.5773
21.0,KENTUCKY  ,21219,Todd County    ,2020-07-10,,07/10/2020,08/09/2020,7-10-2020,1,7,5.0,2020-12-31,Todd,Kentucky,686.0,16.0,Todd,Kentucky,36.8357,-87.1792
21.0,KENTUCKY  ,21225,Union County    ,2020-07-10,,07/10/2020,08/09/2020,7-10-2020,1,7,5.0,2020-12-31,Union,Kentucky,954.0,9.0,Union,Kentucky,37.6585,-87.9453
21.0,KENTUCKY  ,21091,Hancock County    ,2020-07-10,,07/10/2020,08/09/2020,7-10-2020,1,7,5.0,2020-12-31,Hancock,Kentucky,447.0,12.0,Hancock,Kentucky,37.8415,-86.7779
21.0,KENTUCKY  ,21145,McCracken County    ,2020-07-10,,07/10/2020,08/09/2020,7-10-2020,1,7,5.0,2020-12-31,McCracken,Kentucky,4265.0,41.0,McCracken,Kentucky,37.054,-88.7127
21.0,KENTUCKY  ,21129,Lee County    ,2020-07-10,,07/10/2020,08/09/2020,7-10-2020,1,7,5.0,2020-12-31,Lee,Kentucky,1043.0,18.0,Lee,Kentucky,37.5948,-83.7162
21.0,KENTUCKY  ,21187,Owen County    ,2020-07-10,,07/10/2020,08/09/2020,7-10-2020,1,7,5.0,2020-12-31,Owen,Kentucky,428.0,6.0,Owen,Kentucky,38.5197,-84.8281
21.0,KENTUCKY  ,21223,Trimble County    ,2020-07-10,,07/10/2020,08/09/2020,7-10-2020,1,7,5.0,2020-12-31,Trimble,Kentucky,373.0,0.0,Trimble,Kentucky,38.613,-85.3375
21.0,KENTUCKY  ,21127,Lawrence County    ,2020-07-10,,07/10/2020,08/09/2020,7-10-2020,1,7,5.0,2020-12-31,Lawrence,Kentucky,758.0,5.0,Lawrence,Kentucky,38.0679,-82.7348
21.0,KENTUCKY  ,21045,Casey County    ,2020-07-10,,07/10/2020,08/09/2020,7-10-2020,1,7,5.0,2020-12-31,Casey,Kentucky,884.0,27.0,Casey,Kentucky,37.3223,-84.9283
21.0,KENTUCKY  ,21117,Kenton County    ,2020-07-10,,07/10/2020,08/09/2020,7-10-2020,1,7,5.0,2020-12-31,Kenton,Kentucky,8997.0,79.0,Kenton,Kentucky,38.9334,-84.5333
21.0,KENTUCKY  ,21061,Edmonson County    ,2020-07-10,,07/10/2020,08/09/2020,7-10-2020,1,7,5.0,2020-12-31,Edmonson,Kentucky,559.0,13.0,Edmonson,Kentucky,37.2088,-86.2384
21.0,KENTUCKY  ,21133,Letcher County    ,2020-07-10,,07/10/2020,08/09/2020,7-10-2020,1,7,5.0,2020-12-31,Letcher,Kentucky,1027.0,3.0,Letcher,Kentucky,37.1212,-82.8553
21.0,KENTUCKY  ,21165,Menifee County    ,2020-07-10,,07/10/2020,08/09/2020,7-10-2020,1,7,5.0,2020-12-31,Menifee,Kentucky,215.0,1.0,Menifee,Kentucky,37.9414,-83.5989
21.0,KENTUCKY  ,21203,Rockcastle County    ,2020-07-10,,07/10/2020,08/09/2020,7-10-2020,1,7,5.0,2020-12-31,Rockcastle,Kentucky,842.0,8.0,Rockcastle,Kentucky,37.3651,-84.316
21.0,KENTUCKY  ,21141,Logan County    ,2020-07-10,,07/10/2020,08/09/2020,7-10-2020,1,7,5.0,2020-12-31,Logan,Kentucky,1697.0,39.0,Logan,Kentucky,36.8597,-86.8789
21.0,KENTUCKY  ,21081,Grant County    ,2020-05-27,,07/10/2020,08/09/2020,5-27-2020,1,5,7.0,2020-12-31,Grant,Kentucky,1289.0,8.0,Grant,Kentucky,38.6488,-84.6246
21.0,KENTUCKY  ,21105,Hickman County    ,2020-07-10,,07/10/2020,08/09/2020,7-10-2020,1,7,5.0,2020-12-31,Hickman,Kentucky,223.0,5.0,Hickman,Kentucky,36.6781,-88.9762
21.0,KENTUCKY  ,21059,Daviess County    ,2020-07-10,,07/10/2020,08/09/2020,7-10-2020,1,7,5.0,2020-12-31,Daviess,Kentucky,5737.0,92.0,Daviess,Kentucky,37.7318,-87.0873
21.0,KENTUCKY  ,21213,Simpson County    ,2020-07-10,,07/10/2020,08/09/2020,7-10-2020,1,7,5.0,2020-12-31,Simpson,Kentucky,1191.0,11.0,Simpson,Kentucky,36.742,-86.5822
21.0,KENTUCKY  ,21097,Harrison County    ,2020-07-10,,07/10/2020,08/09/2020,7-10-2020,1,7,5.0,2020-12-31,Harrison,Kentucky,729.0,1.0,Harrison,Kentucky,38.4418,-84.3314
21.0,KENTUCKY  ,21107,Hopkins County    ,2020-07-10,,07/10/2020,08/09/2020,7-10-2020,1,7,5.0,2020-12-31,Hopkins,Kentucky,2670.0,103.0,Hopkins,Kentucky,37.3088,-87.5408
21.0,KENTUCKY  ,21093,Hardin County    ,2020-07-10,,07/10/2020,08/09/2020,7-10-2020,1,7,5.0,2020-12-31,Hardin,Kentucky,5949.0,42.0,Hardin,Kentucky,37.6979,-85.9634
21.0,KENTUCKY  ,21125,Laurel County    ,2020-07-10,,07/10/2020,08/09/2020,7-10-2020,1,7,5.0,2020-12-31,Laurel,Kentucky,3645.0,14.0,Laurel,Kentucky,37.1107,-84.1178
21.0,KENTUCKY  ,21131,Leslie County    ,2020-07-10,,07/10/2020,08/09/2020,7-10-2020,1,7,5.0,2020-12-31,Leslie,Kentucky,471.0,1.0,Leslie,Kentucky,37.0941,-83.3811
21.0,KENTUCKY  ,21025,Breathitt County    ,2020-07-10,,07/10/2020,08/09/2020,7-10-2020,1,7,5.0,2020-12-31,Breathitt,Kentucky,597.0,3.0,Breathitt,Kentucky,37.5216,-83.3241
21.0,KENTUCKY  ,21069,Fleming County    ,2020-07-10,,07/10/2020,08/09/2020,7-10-2020,1,7,5.0,2020-12-31,Fleming,Kentucky,711.0,2.0,Fleming,Kentucky,38.3701,-83.6967
21.0,KENTUCKY  ,21079,Garrard County    ,2020-07-10,,07/10/2020,08/09/2020,7-10-2020,1,7,5.0,2020-12-31,Garrard,Kentucky,940.0,4.0,Garrard,Kentucky,37.6396,-84.5377
21.0,KENTUCKY  ,21217,Taylor County    ,2020-07-10,,07/10/2020,08/09/2020,7-10-2020,1,7,5.0,2020-12-31,Taylor,Kentucky,1747.0,21.0,Taylor,Kentucky,37.3665,-85.3279
21.0,KENTUCKY  ,21067,Fayette County    ,2020-07-09,,07/10/2020,08/09/2020,7-9-2020,1,7,5.0,2020-12-31,Fayette,Kentucky,23169.0,160.0,Fayette,Kentucky,38.0423,-84.4587
21.0,KENTUCKY  ,21083,Graves County    ,2020-07-10,,07/10/2020,08/09/2020,7-10-2020,1,7,5.0,2020-12-31,Graves,Kentucky,2632.0,47.0,Graves,Kentucky,36.7231,-88.6512
21.0,KENTUCKY  ,21047,Christian County    ,2020-07-10,7/21/2020(Nixa City),07/10/2020,08/09/2020,7-10-2020,1,7,5.0,2020-12-31,Christian,Kentucky,4310.0,57.0,Christian,Kentucky,36.8942,-87.4905
21.0,KENTUCKY  ,21023,Bracken County    ,2020-07-10,,07/10/2020,08/09/2020,7-10-2020,1,7,5.0,2020-12-31,Bracken,Kentucky,275.0,3.0,Bracken,Kentucky,38.6888,-84.0901
21.0,KENTUCKY  ,21017,Bourbon County    ,2020-07-10,,07/10/2020,08/09/2020,7-10-2020,1,7,5.0,2020-12-31,Bourbon,Kentucky,1000.0,1.0,Bourbon,Kentucky,38.2067,-84.2172
21.0,KENTUCKY  ,21085,Grayson County    ,2020-07-10,,07/10/2020,08/09/2020,7-10-2020,1,7,5.0,2020-12-31,Grayson,Kentucky,1295.0,32.0,Grayson,Kentucky,37.4608,-86.3439
21.0,KENTUCKY  ,21109,Jackson County    ,2020-07-10,,07/10/2020,08/09/2020,7-10-2020,1,7,5.0,2020-12-31,Jackson,Kentucky,846.0,19.0,Jackson,Kentucky,37.4198,-84.0058
21.0,KENTUCKY  ,21215,Spencer County    ,2020-07-10,,07/10/2020,08/09/2020,7-10-2020,1,7,5.0,2020-12-31,Spencer,Kentucky,987.0,5.0,Spencer,Kentucky,38.0325,-85.3278
21.0,KENTUCKY  ,21043,Carter County    ,2020-07-14,,07/10/2020,08/09/2020,7-10-2020,1,7,5.0,2020-12-31,Carter,Kentucky,1363.0,6.0,Carter,Kentucky,38.3182,-83.0495
21.0,KENTUCKY  ,21075,Fulton County    ,2020-07-10,,07/10/2020,08/09/2020,7-10-2020,1,7,5.0,2020-12-31,Fulton,Kentucky,363.0,4.0,Fulton,Kentucky,36.554,-89.1873
21.0,KENTUCKY  ,21123,Larue County    ,2020-07-10,,07/10/2020,08/09/2020,7-10-2020,1,7,5.0,2020-12-31,Larue,Kentucky,816.0,4.0,Larue,Kentucky,37.5458,-85.6979
21.0,KENTUCKY  ,21211,Shelby County    ,2020-07-10,,07/10/2020,08/09/2020,7-10-2020,1,7,5.0,2020-12-31,Shelby,Kentucky,2989.0,28.0,Shelby,Kentucky,38.2155,-85.1948
21.0,KENTUCKY  ,21065,Estill County    ,2020-07-10,,07/10/2020,08/09/2020,7-10-2020,1,7,5.0,2020-12-31,Estill,Kentucky,670.0,0.0,Estill,Kentucky,37.6924,-83.9643
21.0,KENTUCKY  ,21015,Boone County    ,2020-07-10,,07/10/2020,08/09/2020,7-10-2020,1,7,5.0,2020-12-31,Boone,Kentucky,7800.0,43.0,Boone,Kentucky,38.9699,-84.7278
21.0,KENTUCKY  ,21195,Pike County    ,2020-07-10,,07/10/2020,08/09/2020,7-10-2020,1,7,5.0,2020-12-31,Pike,Kentucky,2923.0,34.0,Pike,Kentucky,37.4691,-82.3958
21.0,KENTUCKY  ,21019,Boyd County    ,2020-07-10,,07/10/2020,08/09/2020,7-10-2020,1,7,5.0,2020-12-31,Boyd,Kentucky,3003.0,31.0,Boyd,Kentucky,38.3596,-82.6878
21.0,KENTUCKY  ,21063,Elliott County    ,2020-07-10,,07/10/2020,08/09/2020,7-10-2020,1,7,5.0,2020-12-31,Elliott,Kentucky,784.0,1.0,Elliott,Kentucky,38.1179,-83.0976
21.0,KENTUCKY  ,21183,Ohio County    ,2020-07-10,,07/10/2020,08/09/2020,7-10-2020,1,7,5.0,2020-12-31,Ohio,Kentucky,1505.0,30.0,Ohio,Kentucky,37.4782,-86.8489
21.0,KENTUCKY  ,21055,Crittenden County    ,2020-07-10,,07/10/2020,08/09/2020,7-10-2020,1,7,5.0,2020-12-31,Crittenden,Kentucky,336.0,3.0,Crittenden,Kentucky,37.3527,-88.0972
21.0,KENTUCKY  ,21235,Whitley County    ,2020-07-10,,07/10/2020,08/09/2020,7-10-2020,1,7,5.0,2020-12-31,Whitley,Kentucky,2741.0,9.0,Whitley,Kentucky,36.7581,-84.1452
21.0,KENTUCKY  ,21189,Owsley County    ,2020-07-10,,07/10/2020,08/09/2020,7-10-2020,1,7,5.0,2020-12-31,Owsley,Kentucky,304.0,10.0,Owsley,Kentucky,37.4192,-83.6831
21.0,KENTUCKY  ,21169,Metcalfe County    ,2020-07-10,,07/10/2020,08/09/2020,7-10-2020,1,7,5.0,2020-12-31,Metcalfe,Kentucky,601.0,9.0,Metcalfe,Kentucky,36.9905,-85.6292
21.0,KENTUCKY  ,21135,Lewis County    ,2020-07-10,,07/10/2020,08/09/2020,7-10-2020,1,7,5.0,2020-12-31,Lewis,Kentucky,775.0,23.0,Lewis,Kentucky,38.5316,-83.3781
21.0,KENTUCKY  ,21161,Mason County    ,2020-07-10,,07/10/2020,08/09/2020,7-10-2020,1,7,5.0,2020-12-31,Mason,Kentucky,920.0,17.0,Mason,Kentucky,38.5952,-83.8241
21.0,KENTUCKY  ,21103,Henry County    ,2020-07-10,,07/10/2020,08/09/2020,7-10-2020,1,7,5.0,2020-12-31,Henry,Kentucky,814.0,4.0,Henry,Kentucky,38.4485,-85.1189
21.0,KENTUCKY  ,21029,Bullitt County    ,2020-07-10,,07/10/2020,08/09/2020,7-10-2020,1,7,5.0,2020-12-31,Bullitt,Kentucky,4134.0,30.0,Bullitt,Kentucky,37.9701,-85.6959
21.0,KENTUCKY  ,21041,Carroll County    ,2020-07-10,,07/10/2020,08/09/2020,7-10-2020,1,7,5.0,2020-12-31,Carroll,Kentucky,527.0,6.0,Carroll,Kentucky,38.6678,-85.1236
21.0,KENTUCKY  ,21057,Cumberland County    ,2020-07-10,,07/10/2020,08/09/2020,7-10-2020,1,7,5.0,2020-12-31,Cumberland,Kentucky,427.0,6.0,Cumberland,Kentucky,36.7866,-85.3885
21.0,KENTUCKY  ,21001,Adair County    ,2020-07-08,,07/10/2020,08/09/2020,7-8-2020,1,7,5.0,2020-12-31,Adair,Kentucky,1294.0,45.0,Adair,Kentucky,37.1042,-85.2806
21.0,KENTUCKY  ,21073,Franklin County    ,2020-07-10,,07/10/2020,08/09/2020,7-10-2020,1,7,5.0,2020-12-31,Franklin,Kentucky,2132.0,19.0,Franklin,Kentucky,38.2392,-84.8771
21.0,KENTUCKY  ,21153,Magoffin County    ,2020-07-10,,07/10/2020,08/09/2020,7-10-2020,1,7,5.0,2020-12-31,Magoffin,Kentucky,701.0,1.0,Magoffin,Kentucky,37.7065,-83.0649
21.0,KENTUCKY  ,21007,Ballard County    ,2020-07-10,,07/10/2020,08/09/2020,7-10-2020,1,7,5.0,2020-12-31,Ballard,Kentucky,233.0,2.0,Ballard,Kentucky,37.0585,-88.9993
21.0,KENTUCKY  ,21151,Madison County    ,2020-07-10,,07/10/2020,08/09/2020,7-10-2020,1,7,5.0,2020-12-31,Madison,Kentucky,5706.0,35.0,Madison,Kentucky,37.7202,-84.278
21.0,KENTUCKY  ,21119,Knott County    ,2020-07-10,,07/10/2020,08/09/2020,7-10-2020,1,7,5.0,2020-12-31,Knott,Kentucky,738.0,14.0,Knott,Kentucky,37.354,-82.9541
21.0,KENTUCKY  ,21155,Marion County    ,2020-07-10,,07/10/2020,08/09/2020,7-10-2020,1,7,5.0,2020-12-31,Marion,Kentucky,1510.0,20.0,Marion,Kentucky,37.5525,-85.2696
21.0,KENTUCKY  ,21171,Monroe County    ,2020-07-10,,07/10/2020,08/09/2020,7-10-2020,1,7,5.0,2020-12-31,Monroe,Kentucky,945.0,26.0,Monroe,Kentucky,36.7122,-85.7165
21.0,KENTUCKY  ,21099,Hart County    ,2020-07-10,,07/10/2020,08/09/2020,7-10-2020,1,7,5.0,2020-12-31,Hart,Kentucky,1238.0,9.0,Hart,Kentucky,37.2999,-85.8847
21.0,KENTUCKY  ,21205,Rowan County    ,2020-07-10,,07/10/2020,08/09/2020,7-10-2020,1,7,5.0,2020-12-31,Rowan,Kentucky,1214.0,3.0,Rowan,Kentucky,38.1963,-83.4211
21.0,KENTUCKY  ,21049,Clark County    ,2020-07-10,,07/10/2020,08/09/2020,7-10-2020,1,7,5.0,2020-12-31,Clark,Kentucky,1452.0,15.0,Clark,Kentucky,37.9708,-84.1474
21.0,KENTUCKY  ,21207,Russell County    ,2020-07-10,,07/10/2020,08/09/2020,7-10-2020,1,7,5.0,2020-12-31,Russell,Kentucky,1142.0,35.0,Russell,Kentucky,36.9911,-85.0587
21.0,KENTUCKY  ,21143,Lyon County    ,2020-07-10,,07/10/2020,08/09/2020,7-10-2020,1,7,5.0,2020-12-31,Lyon,Kentucky,320.0,5.0,Lyon,Kentucky,37.0191,-88.0832
21.0,KENTUCKY  ,21111,Jefferson County    ,2020-07-10,,07/10/2020,08/09/2020,7-10-2020,1,7,5.0,2020-12-31,Jefferson,Kentucky,52277.0,658.0,Jefferson,Kentucky,38.1872,-85.6591
21.0,KENTUCKY  ,21229,Washington County    ,2020-07-10,,07/10/2020,08/09/2020,7-10-2020,1,7,5.0,2020-12-31,Washington,Kentucky,869.0,9.0,Washington,Kentucky,37.7534,-85.1748
21.0,KENTUCKY  ,21191,Pendleton County    ,2020-07-10,,07/10/2020,08/09/2020,7-10-2020,1,7,5.0,2020-12-31,Pendleton,Kentucky,612.0,1.0,Pendleton,Kentucky,38.6956,-84.3603
21.0,KENTUCKY  ,21149,McLean County    ,2020-07-10,,07/10/2020,08/09/2020,7-10-2020,1,7,5.0,2020-12-31,McLean,Kentucky,549.0,21.0,McLean,Kentucky,37.5292,-87.2636
21.0,KENTUCKY  ,21035,Calloway County    ,2020-07-10,,07/10/2020,08/09/2020,7-10-2020,1,7,5.0,2020-12-31,Calloway,Kentucky,2344.0,25.0,Calloway,Kentucky,36.621,-88.2722
21.0,KENTUCKY  ,21193,Perry County    ,2020-07-10,,07/10/2020,08/09/2020,7-10-2020,1,7,5.0,2020-12-31,Perry,Kentucky,1552.0,15.0,Perry,Kentucky,37.2443,-83.2215
21.0,KENTUCKY  ,21033,Caldwell County    ,2020-06-25,,07/10/2020,08/09/2020,6-25-2020,1,6,6.0,2020-12-31,Caldwell,Kentucky,869.0,15.0,Caldwell,Kentucky,37.1454,-87.8679
21.0,KENTUCKY  ,21039,Carlisle County    ,2020-07-10,,07/10/2020,08/09/2020,7-10-2020,1,7,5.0,2020-12-31,Carlisle,Kentucky,328.0,1.0,Carlisle,Kentucky,36.8532,-88.971
21.0,KENTUCKY  ,21005,Anderson County    ,2020-07-10,,07/10/2020,08/09/2020,7-10-2020,1,7,5.0,2020-12-31,Anderson,Kentucky,971.0,2.0,Anderson,Kentucky,38.0039,-84.991
21.0,KENTUCKY  ,21071,Floyd County    ,2020-07-10,,07/10/2020,08/09/2020,7-10-2020,1,7,5.0,2020-12-31,Floyd,Kentucky,1805.0,15.0,Floyd,Kentucky,37.5571,-82.7457
21.0,KENTUCKY  ,21011,Bath County    ,2020-07-10,,07/10/2020,08/09/2020,7-10-2020,1,7,5.0,2020-12-31,Bath,Kentucky,505.0,8.0,Bath,Kentucky,38.145,-83.7427
21.0,KENTUCKY  ,21013,Bell County    ,2020-07-10,,07/10/2020,08/09/2020,7-10-2020,1,7,5.0,2020-12-31,Bell,Kentucky,1787.0,26.0,Bell,Kentucky,36.7306,-83.6741
21.0,KENTUCKY  ,21003,Allen County    ,2020-07-09,,07/10/2020,08/09/2020,7-9-2020,1,7,5.0,2020-12-31,Allen,Kentucky,1167.0,18.0,Allen,Kentucky,36.7513,-86.1904
21.0,KENTUCKY  ,21233,Webster County    ,2020-07-10,,07/10/2020,08/09/2020,7-10-2020,1,7,5.0,2020-12-31,Webster,Kentucky,741.0,13.0,Webster,Kentucky,37.5184,-87.6832
21.0,KENTUCKY  ,21159,Martin County    ,2020-07-10,,07/10/2020,08/09/2020,7-10-2020,1,7,5.0,2020-12-31,Martin,Kentucky,657.0,10.0,Martin,Kentucky,37.8016,-82.5132
21.0,KENTUCKY  ,21167,Mercer County    ,2020-07-10,,07/10/2020,08/09/2020,7-10-2020,1,7,5.0,2020-12-31,Mercer,Kentucky,1365.0,6.0,Mercer,Kentucky,37.811,-84.8745
21.0,KENTUCKY  ,21185,Oldham County    ,2020-07-10,,07/10/2020,08/09/2020,7-10-2020,1,7,5.0,2020-12-31,Oldham,Kentucky,3737.0,48.0,Oldham,Kentucky,38.3994,-85.4483
21.0,KENTUCKY  ,21139,Livingston County    ,2020-07-10,,07/10/2020,08/09/2020,7-10-2020,1,7,5.0,2020-12-31,Livingston,Kentucky,488.0,5.0,Livingston,Kentucky,37.2096,-88.3537
21.0,KENTUCKY  ,21157,Marshall County    ,2020-07-10,,07/10/2020,08/09/2020,7-10-2020,1,7,5.0,2020-12-31,Marshall,Kentucky,1558.0,20.0,Marshall,Kentucky,36.8834,-88.3294
21.0,KENTUCKY  ,21031,Butler County    ,2020-07-08,,07/10/2020,08/09/2020,7-8-2020,1,7,5.0,2020-12-31,Butler,Kentucky,814.0,16.0,Butler,Kentucky,37.2073,-86.6816
21.0,KENTUCKY  ,21095,Harlan County    ,2020-07-10,,07/10/2020,08/09/2020,7-10-2020,1,7,5.0,2020-12-31,Harlan,Kentucky,1538.0,18.0,Harlan,Kentucky,36.8569,-83.218
21.0,KENTUCKY  ,21113,Jessamine County    ,2020-07-10,,07/10/2020,08/09/2020,7-10-2020,1,7,5.0,2020-12-31,Jessamine,Kentucky,2621.0,46.0,Jessamine,Kentucky,37.8721,-84.5809
21.0,KENTUCKY  ,21177,Muhlenberg County    ,2020-07-10,,07/10/2020,08/09/2020,7-10-2020,1,7,5.0,2020-12-31,Muhlenberg,Kentucky,1991.0,38.0,Muhlenberg,Kentucky,37.2158,-87.142
21.0,KENTUCKY  ,21089,Greenup County    ,2020-07-10,,07/10/2020,08/09/2020,7-10-2020,1,7,5.0,2020-12-31,Greenup,Kentucky,2275.0,19.0,Greenup,Kentucky,38.5457,-82.9223
22.0,LOUISIANA  ,22127,Winn Parish    ,2020-07-13,,07/13/2020,08/07/2020,7-13-2020,1,7,5.0,2020-12-31,Winn,Louisiana,1227.0,30.0,Winn,Louisiana,31.9443,-92.6367
22.0,LOUISIANA  ,22125,West Feliciana Parish   ,2020-07-13,,07/13/2020,08/07/2020,7-13-2020,1,7,5.0,2020-12-31,West Feliciana,Louisiana,950.0,25.0,West Feliciana,Louisiana,30.8798,-91.42
22.0,LOUISIANA  ,22051,Jefferson Parish    ,2020-07-13,,07/13/2020,08/07/2020,7-13-2020,1,7,5.0,2020-12-31,Jefferson,Louisiana,31498.0,669.0,Jefferson,Louisiana,29.7872,-90.1274
22.0,LOUISIANA  ,22079,Rapides Parish    ,2020-07-13,,07/13/2020,08/07/2020,7-13-2020,1,7,5.0,2020-12-31,Rapides,Louisiana,8258.0,212.0,Rapides,Louisiana,31.1986,-92.5332
22.0,LOUISIANA  ,22093,St. James Parish   ,2020-07-13,,07/13/2020,08/07/2020,7-13-2020,1,7,5.0,2020-12-31,St. James,Louisiana,1323.0,43.0,St. James,Louisiana,30.0263,-90.7963
22.0,LOUISIANA  ,22013,Bienville Parish    ,2020-07-13,,07/13/2020,08/07/2020,7-13-2020,1,7,5.0,2020-12-31,Bienville,Louisiana,1202.0,47.0,Bienville,Louisiana,32.3472,-93.056
22.0,LOUISIANA  ,22069,Natchitoches Parish    ,2020-07-13,,07/13/2020,08/07/2020,7-13-2020,1,7,5.0,2020-12-31,Natchitoches,Louisiana,2840.0,58.0,Natchitoches,Louisiana,31.7235,-93.0962
22.0,LOUISIANA  ,22027,Claiborne Parish    ,2020-07-13,,07/13/2020,08/07/2020,7-13-2020,1,7,5.0,2020-12-31,Claiborne,Louisiana,1072.0,34.0,Claiborne,Louisiana,32.8226,-92.9958
22.0,LOUISIANA  ,22005,Ascension Parish    ,2020-07-13,,07/13/2020,08/07/2020,7-13-2020,1,7,5.0,2020-12-31,Ascension,Louisiana,7849.0,117.0,Ascension,Louisiana,30.2036,-90.9113
22.0,LOUISIANA  ,22025,Catahoula Parish    ,2020-07-13,,07/13/2020,08/07/2020,7-13-2020,1,7,5.0,2020-12-31,Catahoula,Louisiana,853.0,22.0,Catahoula,Louisiana,31.6661,-91.8471
22.0,LOUISIANA  ,22009,Avoyelles Parish    ,2020-07-13,,07/13/2020,08/07/2020,7-13-2020,1,7,5.0,2020-12-31,Avoyelles,Louisiana,2695.0,90.0,Avoyelles,Louisiana,31.0762,-92.0014
22.0,LOUISIANA  ,22109,Terrebonne Parish    ,2020-07-13,,07/13/2020,08/07/2020,7-13-2020,1,7,5.0,2020-12-31,Terrebonne,Louisiana,6260.0,149.0,Terrebonne,Louisiana,29.4148,-90.8663
22.0,LOUISIANA  ,22019,Calcasieu Parish    ,2020-07-13,,07/13/2020,08/07/2020,7-13-2020,1,7,5.0,2020-12-31,Calcasieu,Louisiana,13933.0,285.0,Calcasieu,Louisiana,30.2292,-93.3579
22.0,LOUISIANA  ,22071,Orleans Parish    ,2020-07-13,,07/13/2020,08/07/2020,7-13-2020,1,7,5.0,2020-12-31,Orleans,Louisiana,20780.0,679.0,Orleans,Louisiana,30.0687,-89.9288
22.0,LOUISIANA  ,22023,Cameron Parish    ,2020-07-13,,07/13/2020,08/07/2020,7-13-2020,1,7,5.0,2020-12-31,Cameron,Louisiana,381.0,4.0,Cameron,Louisiana,29.8754,-93.1938
22.0,LOUISIANA  ,22011,Beauregard Parish    ,2020-07-13,,07/13/2020,08/07/2020,7-13-2020,1,7,5.0,2020-12-31,Beauregard,Louisiana,1977.0,54.0,Beauregard,Louisiana,30.6484,-93.3434
22.0,LOUISIANA  ,22057,Lafourche Parish    ,2020-07-13,,07/13/2020,08/07/2020,7-13-2020,1,7,5.0,2020-12-31,Lafourche,Louisiana,6250.0,162.0,Lafourche,Louisiana,29.5662,-90.4258
22.0,LOUISIANA  ,22000,Louisiana     ,2020-07-13,,07/13/2020,08/07/2020,7-13-2020,1,7,5.0,,,,,,,,,
22.0,LOUISIANA  ,22095,St. John the Baptist Parish ,2020-07-13,,07/13/2020,08/07/2020,7-13-2020,1,7,5.0,2020-12-31,St. John the Baptist,Louisiana,2649.0,119.0,St. John the Baptist,Louisiana,30.1265,-90.4709
22.0,LOUISIANA  ,22033,East Baton Rouge Parish  ,2020-07-03,,07/13/2020,08/07/2020,7-3-2020,1,7,5.0,2020-12-31,East Baton Rouge,Louisiana,25726.0,583.0,East Baton Rouge,Louisiana,30.5383,-91.0956
22.0,LOUISIANA  ,22039,Evangeline Parish    ,2020-07-13,,07/13/2020,08/07/2020,7-13-2020,1,7,5.0,2020-12-31,Evangeline,Louisiana,2624.0,57.0,Evangeline,Louisiana,30.729,-92.4059
22.0,LOUISIANA  ,22037,East Feliciana Parish   ,2020-07-13,,07/13/2020,08/07/2020,7-13-2020,1,7,5.0,2020-12-31,East Feliciana,Louisiana,2458.0,91.0,East Feliciana,Louisiana,30.8451,-91.0455
22.0,LOUISIANA  ,22035,East Carroll Parish   ,2020-07-13,,07/13/2020,08/07/2020,7-13-2020,1,7,5.0,2020-12-31,East Carroll,Louisiana,959.0,16.0,East Carroll,Louisiana,32.7325,-91.2351
22.0,LOUISIANA  ,22031,De Soto Parish   ,2020-07-13,,07/13/2020,08/07/2020,7-13-2020,1,7,5.0,2020-12-31,De Soto,Louisiana,1764.0,51.0,De Soto,Louisiana,32.0554,-93.7372
22.0,LOUISIANA  ,22115,Vernon Parish    ,2020-07-13,,07/13/2020,08/07/2020,7-13-2020,1,7,5.0,2020-12-31,Vernon,Louisiana,2168.0,76.0,Vernon,Louisiana,31.1083,-93.1842
22.0,LOUISIANA  ,22103,St. Tammany Parish   ,2020-07-13,,07/13/2020,08/07/2020,7-13-2020,1,7,5.0,2020-12-31,St. Tammany,Louisiana,15312.0,345.0,St. Tammany,Louisiana,30.4102,-89.9583
22.0,LOUISIANA  ,22107,Tensas Parish    ,2020-07-13,,07/13/2020,08/07/2020,7-13-2020,1,7,5.0,2020-12-31,Tensas,Louisiana,273.0,3.0,Tensas,Louisiana,32.0017,-91.3401
22.0,LOUISIANA  ,22101,St. Mary Parish   ,2020-07-13,,07/13/2020,08/07/2020,7-13-2020,1,7,5.0,2020-12-31,St. Mary,Louisiana,3080.0,102.0,St. Mary,Louisiana,29.7047,-91.4432
22.0,LOUISIANA  ,22063,Livingston Parish    ,2020-07-13,,07/13/2020,08/07/2020,7-13-2020,1,7,5.0,2020-12-31,Livingston,Louisiana,8761.0,125.0,Livingston,Louisiana,30.4401,-90.7279
22.0,LOUISIANA  ,22045,Iberia Parish    ,2020-07-13,,07/13/2020,08/07/2020,7-13-2020,1,7,5.0,2020-12-31,Iberia,Louisiana,4840.0,120.0,Iberia,Louisiana,29.8965,-91.73
22.0,LOUISIANA  ,22099,St. Martin Parish   ,2020-07-13,,07/13/2020,08/07/2020,7-13-2020,1,7,5.0,2020-12-31,St. Martin,Louisiana,3804.0,82.0,St. Martin,Louisiana,30.1291,-91.6083
22.0,LOUISIANA  ,22061,Lincoln Parish    ,2020-07-13,,07/13/2020,08/07/2020,7-13-2020,1,7,5.0,2020-12-31,Lincoln,Louisiana,3339.0,73.0,Lincoln,Louisiana,32.6016,-92.6648
22.0,LOUISIANA  ,22015,Bossier Parish    ,2020-07-13,,07/13/2020,08/07/2020,7-13-2020,1,7,5.0,2020-12-31,Bossier,Louisiana,8979.0,199.0,Bossier,Louisiana,32.6789,-93.605
22.0,LOUISIANA  ,22097,St. Landry Parish   ,2020-07-13,,07/13/2020,08/07/2020,7-13-2020,1,7,5.0,2020-12-31,St. Landry,Louisiana,6576.0,202.0,St. Landry,Louisiana,30.5988,-92.0059
22.0,LOUISIANA  ,22077,Pointe Coupee Parish   ,2020-07-13,,07/13/2020,08/07/2020,7-13-2020,1,7,5.0,2020-12-31,Pointe Coupee,Louisiana,1918.0,57.0,Pointe Coupee,Louisiana,30.7094,-91.6008
22.0,LOUISIANA  ,22089,St. Charles Parish   ,2020-07-13,,07/13/2020,08/07/2020,7-13-2020,1,7,5.0,2020-12-31,St. Charles,Louisiana,3637.0,73.0,St. Charles,Louisiana,29.9055,-90.3582
22.0,LOUISIANA  ,22087,St. Bernard Parish   ,2020-07-13,,07/13/2020,08/07/2020,7-13-2020,1,7,5.0,2020-12-31,St. Bernard,Louisiana,2367.0,39.0,St. Bernard,Louisiana,29.8693,-89.5552
22.0,LOUISIANA  ,22119,Webster Parish    ,2020-07-13,,07/13/2020,08/07/2020,7-13-2020,1,7,5.0,2020-12-31,Webster,Louisiana,2822.0,68.0,Webster,Louisiana,32.7135,-93.335
22.0,LOUISIANA  ,22091,St. Helena Parish   ,2020-07-13,,07/13/2020,08/07/2020,7-13-2020,1,7,5.0,2020-12-31,St. Helena,Louisiana,707.0,5.0,St. Helena,Louisiana,30.822,-90.7103
22.0,LOUISIANA  ,22041,Franklin Parish    ,2020-07-13,,07/13/2020,08/07/2020,7-13-2020,1,7,5.0,2020-12-31,Franklin,Louisiana,2044.0,81.0,Franklin,Louisiana,32.1332,-91.6738
22.0,LOUISIANA  ,22111,Union Parish    ,2020-07-13,,07/13/2020,08/07/2020,7-13-2020,1,7,5.0,2020-12-31,Union,Louisiana,1842.0,66.0,Union,Louisiana,32.8318,-92.3748
22.0,LOUISIANA  ,22021,Caldwell Parish    ,2020-07-13,,07/13/2020,08/07/2020,7-13-2020,1,7,5.0,2020-12-31,Caldwell,Louisiana,922.0,21.0,Caldwell,Louisiana,32.0923,-92.1166
22.0,LOUISIANA  ,22073,Ouachita Parish    ,2020-07-13,,07/13/2020,08/07/2020,7-13-2020,1,7,5.0,2020-12-31,Ouachita,Louisiana,13951.0,284.0,Ouachita,Louisiana,32.4783,-92.1549
22.0,LOUISIANA  ,22001,Acadia Parish    ,2020-07-13,,07/13/2020,08/07/2020,7-13-2020,1,7,5.0,2020-12-31,Acadia,Louisiana,5082.0,153.0,Acadia,Louisiana,30.2905,-92.412
22.0,LOUISIANA  ,22123,West Carroll Parish   ,2020-07-13,,07/13/2020,08/07/2020,7-13-2020,1,7,5.0,2020-12-31,West Carroll,Louisiana,913.0,34.0,West Carroll,Louisiana,32.7885,-91.4568
22.0,LOUISIANA  ,22083,Richland Parish    ,2020-07-13,,07/13/2020,08/07/2020,7-13-2020,1,7,5.0,2020-12-31,Richland,Louisiana,1744.0,40.0,Richland,Louisiana,32.4178,-91.7635
22.0,LOUISIANA  ,22049,Jackson Parish    ,2020-07-13,,07/13/2020,08/07/2020,7-13-2020,1,7,5.0,2020-12-31,Jackson,Louisiana,1392.0,38.0,Jackson,Louisiana,32.3021,-92.5578
22.0,LOUISIANA  ,22043,Grant Parish    ,2020-07-13,,07/13/2020,08/07/2020,7-13-2020,1,7,5.0,2020-12-31,Grant,Louisiana,1501.0,40.0,Grant,Louisiana,31.5997,-92.5595
22.0,LOUISIANA  ,22055,Lafayette Parish    ,2020-07-13,,07/13/2020,08/07/2020,7-13-2020,1,7,5.0,2020-12-31,Lafayette,Louisiana,16753.0,188.0,Lafayette,Louisiana,30.2068,-92.0639
22.0,LOUISIANA  ,22007,Assumption Parish    ,2020-07-13,,07/13/2020,08/07/2020,7-13-2020,1,7,5.0,2020-12-31,Assumption,Louisiana,1379.0,28.0,Assumption,Louisiana,29.9008,-91.0626
22.0,LOUISIANA  ,22121,West Baton Rouge Parish  ,2020-07-13,,07/13/2020,08/07/2020,7-13-2020,1,7,5.0,2020-12-31,West Baton Rouge,Louisiana,1836.0,48.0,West Baton Rouge,Louisiana,30.4634,-91.3127
22.0,LOUISIANA  ,22059,La Salle Parish   ,2020-07-13,,07/13/2020,08/07/2020,7-13-2020,1,7,5.0,2020-12-31,LaSalle,Louisiana,1149.0,23.0,LaSalle,Louisiana,31.6768,-92.1605
22.0,LOUISIANA  ,22117,Washington Parish    ,2020-07-13,,07/13/2020,08/07/2020,7-13-2020,1,7,5.0,2020-12-31,Washington,Louisiana,3135.0,87.0,Washington,Louisiana,30.8533,-90.0405
22.0,LOUISIANA  ,22029,Concordia Parish    ,2020-07-13,,07/13/2020,08/07/2020,7-13-2020,1,7,5.0,2020-12-31,Concordia,Louisiana,1448.0,38.0,Concordia,Louisiana,31.4459,-91.6401
22.0,LOUISIANA  ,22047,Iberville Parish    ,2020-07-13,,07/13/2020,08/07/2020,7-13-2020,1,7,5.0,2020-12-31,Iberville,Louisiana,2683.0,73.0,Iberville,Louisiana,30.2585,-91.3493
22.0,LOUISIANA  ,22081,Red River Parish   ,2020-07-13,,07/13/2020,08/07/2020,7-13-2020,1,7,5.0,2020-12-31,Red River,Louisiana,661.0,29.0,Red River,Louisiana,32.0931,-93.3399
22.0,LOUISIANA  ,22017,Caddo Parish    ,2020-07-13,,07/13/2020,08/07/2020,7-13-2020,1,7,5.0,2020-12-31,Caddo,Louisiana,17819.0,517.0,Caddo,Louisiana,32.5801,-93.8823
22.0,LOUISIANA  ,22003,Allen Parish    ,2020-07-13,,07/13/2020,08/07/2020,7-13-2020,1,7,5.0,2020-12-31,Allen,Louisiana,2458.0,71.0,Allen,Louisiana,30.6529,-92.8279
22.0,LOUISIANA  ,22085,Sabine Parish    ,2020-07-13,,07/13/2020,08/07/2020,7-13-2020,1,7,5.0,2020-12-31,Sabine,Louisiana,2064.0,44.0,Sabine,Louisiana,31.564,-93.5546
22.0,LOUISIANA  ,22067,Morehouse Parish    ,2020-07-13,,07/13/2020,08/07/2020,7-13-2020,1,7,5.0,2020-12-31,Morehouse,Louisiana,2133.0,46.0,Morehouse,Louisiana,32.8202,-91.8018
22.0,LOUISIANA  ,22113,Vermilion Parish    ,2020-07-13,,07/13/2020,08/07/2020,7-13-2020,1,7,5.0,2020-12-31,Vermilion,Louisiana,3518.0,85.0,Vermilion,Louisiana,29.8465,-92.3238
22.0,LOUISIANA  ,22065,Madison Parish    ,2020-07-13,,07/13/2020,08/07/2020,7-13-2020,1,7,5.0,2020-12-31,Madison,Louisiana,1307.0,18.0,Madison,Louisiana,32.3644,-91.2426
22.0,LOUISIANA  ,22105,Tangipahoa Parish    ,2020-07-13,,07/13/2020,08/07/2020,7-13-2020,1,7,5.0,2020-12-31,Tangipahoa,Louisiana,9038.0,184.0,Tangipahoa,Louisiana,30.6266,-90.4057
22.0,LOUISIANA  ,22053,Jefferson Davis Parish   ,2020-07-13,,07/13/2020,08/07/2020,7-13-2020,1,7,5.0,2020-12-31,Jefferson Davis,Louisiana,2285.0,65.0,Jefferson Davis,Louisiana,30.2677,-92.8141
22.0,LOUISIANA  ,22075,Plaquemines Parish    ,2020-07-13,,07/13/2020,08/07/2020,7-13-2020,1,7,5.0,2020-12-31,Plaquemines,Louisiana,1708.0,21.0,Plaquemines,Louisiana,29.4405,-89.6097
23.0,MAINE  ,23009,Hancock County    ,2020-07-08,,05/01/2020,,5-1-2020,1,7,5.0,2020-12-31,Hancock,Maine,550.0,12.0,Hancock,Maine,44.6642,-68.3586
23.0,MAINE  ,23011,Kennebec County    ,2020-07-08,,05/01/2020,,5-1-2020,1,7,5.0,2020-12-31,Kennebec,Maine,1812.0,29.0,Kennebec,Maine,44.4091,-69.7673
23.0,MAINE  ,23005,Cumberland County    ,2020-07-08,,05/01/2020,,5-1-2020,1,7,5.0,2020-12-31,Cumberland,Maine,7233.0,97.0,Cumberland,Maine,43.8464,-70.3988
23.0,MAINE  ,23017,Oxford County    ,2020-07-08,,05/01/2020,,5-1-2020,1,7,5.0,2020-12-31,Oxford,Maine,1115.0,21.0,Oxford,Maine,44.4999,-70.7566
23.0,MAINE  ,23025,Somerset County    ,2020-07-08,,05/01/2020,,5-1-2020,1,7,5.0,2020-12-31,Somerset,Maine,743.0,21.0,Somerset,Maine,45.5139,-69.9589
23.0,MAINE  ,23013,Knox County    ,2020-07-08,,05/01/2020,,5-1-2020,1,7,5.0,2020-12-31,Knox,Maine,370.0,4.0,Knox,Maine,44.141,-69.1686
23.0,MAINE  ,23021,Piscataquis County    ,2020-07-08,,05/01/2020,,5-1-2020,1,7,5.0,2020-12-31,Piscataquis,Maine,117.0,1.0,Piscataquis,Maine,45.8373,-69.2846
23.0,MAINE  ,23019,Penobscot County    ,2020-07-08,,05/01/2020,,5-1-2020,1,7,5.0,2020-12-31,Penobscot,Maine,2050.0,20.0,Penobscot,Maine,45.4006,-68.6495
23.0,MAINE  ,23003,Aroostook County    ,2020-04-29,,05/01/2020,,4-29-2020,1,4,8.0,2020-12-31,Aroostook,Maine,617.0,8.0,Aroostook,Maine,46.6589,-68.5989
23.0,MAINE  ,23031,York County    ,2020-04-29,,05/01/2020,,4-29-2020,1,4,8.0,2020-12-31,York,Maine,5030.0,63.0,York,Maine,43.4782,-70.7144
23.0,MAINE  ,23027,Waldo County    ,2020-04-29,,05/01/2020,,4-29-2020,1,4,8.0,2020-12-31,Waldo,Maine,380.0,17.0,Waldo,Maine,44.5028,-69.1454
23.0,MAINE  ,23015,Lincoln County    ,2020-07-08,,05/01/2020,,5-1-2020,1,7,5.0,2020-12-31,Lincoln,Maine,301.0,2.0,Lincoln,Maine,44.0664,-69.5435
23.0,MAINE  ,23007,Franklin County    ,2020-07-08,,05/01/2020,,5-1-2020,1,7,5.0,2020-12-31,Franklin,Maine,451.0,5.0,Franklin,Maine,44.974,-70.444
23.0,MAINE  ,23023,Sagadahoc County    ,2020-07-08,,05/01/2020,,5-1-2020,1,7,5.0,2020-12-31,Sagadahoc,Maine,387.0,1.0,Sagadahoc,Maine,43.9598,-69.8546
23.0,MAINE  ,23029,Washington County    ,2020-04-29,,05/01/2020,,4-29-2020,1,4,8.0,2020-12-31,Washington,Maine,377.0,2.0,Washington,Maine,45.0306,-67.6288
23.0,MAINE  ,23001,Androscoggin County    ,2020-04-29,,05/01/2020,,4-29-2020,1,4,8.0,2020-12-31,Androscoggin,Maine,2667.0,44.0,Androscoggin,Maine,44.1658,-70.2065
24.0,MARYLAND  ,24043,Washington County    ,2020-04-15,,04/18/2020,,4-15-2020,1,4,8.0,2020-12-31,Washington,Maryland,8208.0,149.0,Washington,Maryland,39.6036,-77.814
24.0,MARYLAND  ,24041,Talbot County    ,2020-04-18,,04/18/2020,,4-18-2020,1,4,8.0,2020-12-31,Talbot,Maryland,1164.0,8.0,Talbot,Maryland,38.7713,-76.0971
24.0,MARYLAND  ,24017,Charles County    ,2020-04-15,,04/18/2020,,4-15-2020,1,4,8.0,2020-12-31,Charles,Maryland,6037.0,124.0,Charles,Maryland,38.5073,-76.9922
24.0,MARYLAND  ,24047,Worcester County    ,2020-04-18,,04/18/2020,,4-18-2020,1,4,8.0,2020-12-31,Worcester,Maryland,2159.0,48.0,Worcester,Maryland,38.2128,-75.334
24.0,MARYLAND  ,24045,Wicomico County    ,2020-04-18,,04/18/2020,,4-18-2020,1,4,8.0,2020-12-31,Wicomico,Maryland,4675.0,77.0,Wicomico,Maryland,38.3733,-75.6208
24.0,MARYLAND  ,24015,Cecil County    ,2020-04-18,,04/18/2020,,4-18-2020,1,4,8.0,2020-12-31,Cecil,Maryland,3570.0,74.0,Cecil,Maryland,39.5712,-75.9407
24.0,MARYLAND  ,24009,Calvert County    ,2020-04-18,,04/18/2020,,4-18-2020,1,4,8.0,2020-12-31,Calvert,Maryland,2232.0,45.0,Calvert,Maryland,38.5434,-76.5687
24.0,MARYLAND  ,24001,Allegany County    ,2020-04-18,,04/18/2020,,4-18-2020,1,4,8.0,2020-12-31,Allegany,Maryland,5404.0,153.0,Allegany,Maryland,39.6215,-78.6976
24.0,MARYLAND  ,24029,Kent County    ,2020-04-18,,04/18/2020,,4-18-2020,1,4,8.0,2020-12-31,Kent,Maryland,739.0,27.0,Kent,Maryland,39.2545,-76.0399
24.0,MARYLAND  ,24025,Harford County    ,2020-04-18,,04/18/2020,,4-18-2020,1,4,8.0,2020-12-31,Harford,Maryland,8555.0,164.0,Harford,Maryland,39.5611,-76.3171
24.0,MARYLAND  ,24510,Baltimore city    ,2020-04-18,,04/18/2020,,4-18-2020,1,4,8.0,2020-12-31,Baltimore city,Maryland,31558.0,704.0,Baltimore,Maryland,39.3051,-76.6144
24.0,MARYLAND  ,24037,St. Mary    ,2020-04-15,,04/18/2020,,4-15-2020,1,4,8.0,2020-12-31,St. Mary's,Maryland,3255.0,87.0,St. Mary's,Maryland,38.3024,-76.6058
24.0,MARYLAND  ,24013,Carroll County    ,2020-04-18,,04/18/2020,,4-18-2020,1,4,8.0,2020-12-31,Carroll,Maryland,5172.0,165.0,Carroll,Maryland,39.5629,-77.0225
24.0,MARYLAND  ,24033,Prince George    ,2020-04-15,,04/18/2020,,4-15-2020,1,4,8.0,2020-12-31,Prince George's,Maryland,54614.0,1085.0,Prince George's,Maryland,38.8295,-76.8473
24.0,MARYLAND  ,24039,Somerset County    ,2020-04-18,,04/18/2020,,4-18-2020,1,4,8.0,2020-12-31,Somerset,Maryland,1792.0,22.0,Somerset,Maryland,38.1158,-75.7518
24.0,MARYLAND  ,24003,Anne Arundel County   ,2020-04-15,,04/18/2020,,4-15-2020,1,4,8.0,2020-12-31,Anne Arundel,Maryland,24421.0,365.0,Anne Arundel,Maryland,39.0065,-76.6051
24.0,MARYLAND  ,24027,Howard County    ,2020-04-18,,04/18/2020,,4-18-2020,1,4,8.0,2020-12-31,Howard,Maryland,11228.0,180.0,Howard,Maryland,39.2507,-76.9312
24.0,MARYLAND  ,24023,Garrett County    ,2020-04-18,,04/18/2020,,4-18-2020,1,4,8.0,2020-12-31,Garrett,Maryland,1457.0,50.0,Garrett,Maryland,39.5289,-79.2729
24.0,MARYLAND  ,24035,Queen Anne    ,2020-04-18,,04/18/2020,,4-18-2020,1,4,8.0,2020-12-31,Queen Anne's,Maryland,1665.0,28.0,Queen Anne's,Maryland,39.068,-76.0203
24.0,MARYLAND  ,24011,Caroline County    ,2020-04-18,,04/18/2020,,4-18-2020,1,4,8.0,2020-12-31,Caroline,Maryland,1319.0,10.0,Caroline,Maryland,38.8717,-75.8316
24.0,MARYLAND  ,24021,Frederick County    ,2020-04-14,,04/18/2020,,4-14-2020,1,4,8.0,2020-12-31,Frederick,Maryland,11309.0,194.0,Frederick,Maryland,39.4722,-77.398
24.0,MARYLAND  ,24031,Montgomery County    ,2020-04-13,,04/18/2020,,4-13-2020,1,4,8.0,2020-12-31,Montgomery,Maryland,46243.0,1124.0,Montgomery,Maryland,39.1363,-77.2042
24.0,MARYLAND  ,24019,Dorchester County    ,2020-04-18,,04/18/2020,,4-18-2020,1,4,8.0,2020-12-31,Dorchester,Maryland,1372.0,22.0,Dorchester,Maryland,38.4829,-76.0125
24.0,MARYLAND  ,24005,Baltimore County    ,2020-04-15,,04/18/2020,,4-15-2020,1,4,8.0,2020-12-31,Baltimore,Maryland,38686.0,933.0,Baltimore,Maryland,39.4627,-76.6393
25.0,MASSACHUSETTS  ,25019,Nantucket County    ,2020-05-06,,05/06/2020,,5-6-2020,1,5,7.0,2020-12-31,Nantucket,Massachusetts,748.0,2.0,Nantucket,Massachusetts,41.2831,-70.0692
25.0,MASSACHUSETTS  ,25005,Bristol County    ,2020-05-06,,05/06/2020,,5-6-2020,1,5,7.0,2020-12-31,Bristol,Massachusetts,34655.0,1071.0,Bristol,Massachusetts,41.7972,-71.1144
25.0,MASSACHUSETTS  ,25011,Franklin County    ,2020-05-06,,05/06/2020,,5-6-2020,1,5,7.0,2020-12-31,Franklin,Massachusetts,1278.0,92.0,Franklin,Massachusetts,42.5831,-72.5918
25.0,MASSACHUSETTS  ,25025,Suffolk County    ,2020-04-23,,05/06/2020,,4-23-2020,1,4,8.0,2020-12-31,Suffolk,Massachusetts,54556.0,1374.0,Suffolk,Massachusetts,42.3336,-71.0709
25.0,MASSACHUSETTS  ,25021,Norfolk County    ,2020-04-17,,05/06/2020,,4-17-2020,1,4,8.0,2020-12-31,Norfolk,Massachusetts,27296.0,1302.0,Norfolk,Massachusetts,42.1607,-71.2111
25.0,MASSACHUSETTS  ,25027,Worcester County    ,2020-04-27,,05/06/2020,,4-27-2020,1,4,8.0,2020-12-31,Worcester,Massachusetts,42595.0,1523.0,Worcester,Massachusetts,42.3514,-71.9077
25.0,MASSACHUSETTS  ,25017,Middlesex County    ,2020-04-10,,05/06/2020,,4-10-2020,1,4,8.0,2020-12-31,Middlesex,Massachusetts,75615.0,2729.0,Middlesex,Massachusetts,42.4856,-71.3918
25.0,MASSACHUSETTS  ,25009,Essex County    ,2020-04-11,,05/06/2020,,4-11-2020,1,4,8.0,2020-12-31,Essex,Massachusetts,58429.0,1698.0,Essex,Massachusetts,42.6731,-70.952
25.0,MASSACHUSETTS  ,25023,Plymouth County    ,2020-05-06,,05/06/2020,,5-6-2020,1,5,7.0,2020-12-31,Plymouth,Massachusetts,24296.0,1005.0,Plymouth,Massachusetts,41.9512,-70.8114
25.0,MASSACHUSETTS  ,25001,Barnstable County    ,2020-04-30,,05/06/2020,,4-30-2020,1,4,8.0,2020-12-31,Barnstable,Massachusetts,5396.0,238.0,Barnstable,Massachusetts,41.7242,-70.2915
25.0,MASSACHUSETTS  ,25015,Hampshire County    ,2020-05-06,,05/06/2020,,5-6-2020,1,5,7.0,2020-12-31,Hampshire,Massachusetts,3832.0,198.0,Hampshire,Massachusetts,42.3402,-72.6638
25.0,MASSACHUSETTS  ,25013,Hampden County    ,2020-04-27,,05/06/2020,,4-27-2020,1,4,8.0,2020-12-31,Hampden,Massachusetts,26282.0,1046.0,Hampden,Massachusetts,42.1351,-72.6316
25.0,MASSACHUSETTS  ,25007,Dukes County    ,2020-05-06,,05/06/2020,,5-6-2020,1,5,7.0,2020-12-31,Dukes,Massachusetts,483.0,0.0,Dukes,Massachusetts,41.3961,-70.6501
25.0,MASSACHUSETTS  ,25003,Berkshire County    ,2020-05-06,,05/06/2020,,5-6-2020,1,5,7.0,2020-12-31,Berkshire,Massachusetts,2907.0,138.0,Berkshire,Massachusetts,42.3707,-73.2064
26.0,MICHIGAN  ,26045,Eaton County    ,2020-04-27,,07/10/2020,,4-27-2020,1,4,8.0,2020-12-31,Eaton,Michigan,4667.0,88.0,Eaton,Michigan,42.5961,-84.8383
26.0,MICHIGAN  ,26149,St. Joseph County   ,2020-04-27,,07/10/2020,,4-27-2020,1,4,8.0,2020-12-31,St. Joseph,Michigan,3584.0,50.0,St. Joseph,Michigan,41.9144,-85.5278
26.0,MICHIGAN  ,26161,Washtenaw County    ,2020-04-27,,07/10/2020,,4-27-2020,1,4,8.0,2020-12-31,Washtenaw,Michigan,14234.0,200.0,Washtenaw,Michigan,42.2532,-83.8388
26.0,MICHIGAN  ,26039,Crawford County    ,2020-04-27,,07/10/2020,,4-27-2020,1,4,8.0,2020-12-31,Crawford,Michigan,457.0,6.0,Crawford,Michigan,44.6837,-84.6103
26.0,MICHIGAN  ,26103,Marquette County    ,2020-04-27,,07/10/2020,,4-27-2020,1,4,8.0,2020-12-31,Marquette,Michigan,4408.0,52.0,Marquette,Michigan,46.4314,-87.6416
26.0,MICHIGAN  ,26145,Saginaw County    ,2020-04-27,,07/10/2020,,4-27-2020,1,4,8.0,2020-12-31,Saginaw,Michigan,12367.0,383.0,Saginaw,Michigan,43.335,-84.0532
26.0,MICHIGAN  ,26043,Dickinson County    ,2020-04-27,,07/10/2020,,4-27-2020,1,4,8.0,2020-12-31,Dickinson,Michigan,2174.0,68.0,Dickinson,Michigan,46.0091,-87.8702
26.0,MICHIGAN  ,26013,Baraga County    ,2020-04-27,,07/10/2020,,4-27-2020,1,4,8.0,2020-12-31,Baraga,Michigan,610.0,28.0,Baraga,Michigan,46.6626,-88.3652
26.0,MICHIGAN  ,26061,Houghton County    ,2020-04-27,,07/10/2020,,4-27-2020,1,4,8.0,2020-12-31,Houghton,Michigan,1974.0,32.0,Houghton,Michigan,46.8978,-88.6874
26.0,MICHIGAN  ,26017,Bay County    ,2020-04-27,,07/10/2020,,4-27-2020,1,4,8.0,2020-12-31,Bay,Michigan,6219.0,187.0,Bay,Michigan,43.708,-83.9916
26.0,MICHIGAN  ,26115,Monroe County    ,2020-04-27,,07/10/2020,,4-27-2020,1,4,8.0,2020-12-31,Monroe,Michigan,7595.0,149.0,Monroe,Michigan,41.9287,-83.5375
26.0,MICHIGAN  ,26163,Wayne County    ,2020-04-27,,07/10/2020,,4-27-2020,1,4,8.0,2020-12-31,Wayne,Michigan,84967.0,3626.0,Wayne,Michigan,42.2819,-83.2821
26.0,MICHIGAN  ,26091,Lenawee County    ,2020-04-27,,07/10/2020,,4-27-2020,1,4,8.0,2020-12-31,Lenawee,Michigan,5353.0,66.0,Lenawee,Michigan,41.8951,-84.0664
26.0,MICHIGAN  ,26025,Calhoun County    ,2020-04-27,,07/10/2020,,4-27-2020,1,4,8.0,2020-12-31,Calhoun,Michigan,7802.0,189.0,Calhoun,Michigan,42.2465,-85.0056
26.0,MICHIGAN  ,26083,Keweenaw County    ,2020-04-27,,07/10/2020,,4-27-2020,1,4,8.0,2020-12-31,Keweenaw,Michigan,82.0,2.0,Keweenaw,Michigan,47.6279,-88.4346
26.0,MICHIGAN  ,26007,Alpena County    ,2020-04-27,,07/10/2020,,4-27-2020,1,4,8.0,2020-12-31,Alpena,Michigan,1142.0,26.0,Alpena,Michigan,45.0349,-83.6258
26.0,MICHIGAN  ,26029,Charlevoix County    ,2020-04-27,,07/10/2020,,4-27-2020,1,4,8.0,2020-12-31,Charlevoix,Michigan,849.0,10.0,Charlevoix,Michigan,45.3022,-85.1263
26.0,MICHIGAN  ,26147,St. Clair County   ,2020-04-27,,07/10/2020,,4-27-2020,1,4,8.0,2020-12-31,St. Clair,Michigan,7088.0,160.0,St. Clair,Michigan,42.9341,-82.6805
26.0,MICHIGAN  ,26085,Lake County    ,2020-04-27,,07/10/2020,,4-27-2020,1,4,8.0,2020-12-31,Lake,Michigan,304.0,9.0,Lake,Michigan,43.9901,-85.8016
26.0,MICHIGAN  ,26155,Shiawassee County    ,2020-04-27,,07/10/2020,,4-27-2020,1,4,8.0,2020-12-31,Shiawassee,Michigan,2954.0,58.0,Shiawassee,Michigan,42.9537,-84.1467
26.0,MICHIGAN  ,26021,Berrien County    ,2020-04-27,,07/10/2020,,4-27-2020,1,4,8.0,2020-12-31,Berrien,Michigan,9371.0,189.0,Berrien,Michigan,41.9547,-86.4123
26.0,MICHIGAN  ,26019,Benzie County    ,2020-04-27,,07/10/2020,,4-27-2020,1,4,8.0,2020-12-31,Benzie,Michigan,658.0,26.0,Benzie,Michigan,44.6387,-86.0155
26.0,MICHIGAN  ,26153,Schoolcraft County    ,2020-04-27,,07/10/2020,,4-27-2020,1,4,8.0,2020-12-31,Schoolcraft,Michigan,229.0,4.0,Schoolcraft,Michigan,46.1966,-86.1997
26.0,MICHIGAN  ,26151,Sanilac County    ,2020-04-27,,07/10/2020,,4-27-2020,1,4,8.0,2020-12-31,Sanilac,Michigan,1497.0,57.0,Sanilac,Michigan,43.4236,-82.8201
26.0,MICHIGAN  ,26157,Tuscola County    ,2020-04-27,,07/10/2020,,4-27-2020,1,4,8.0,2020-12-31,Tuscola,Michigan,2637.0,89.0,Tuscola,Michigan,43.4645,-83.4169
26.0,MICHIGAN  ,26023,Branch County    ,2020-04-27,,07/10/2020,,4-27-2020,1,4,8.0,2020-12-31,Branch,Michigan,3887.0,91.0,Branch,Michigan,41.9161,-85.059
26.0,MICHIGAN  ,26047,Emmet County    ,2020-04-27,,07/10/2020,,4-27-2020,1,4,8.0,2020-12-31,Emmet,Michigan,1207.0,33.0,Emmet,Michigan,45.521,-84.8908
26.0,MICHIGAN  ,26165,Wexford County    ,2020-04-27,,07/10/2020,,4-27-2020,1,4,8.0,2020-12-31,Wexford,Michigan,994.0,18.0,Wexford,Michigan,44.3383,-85.5784
26.0,MICHIGAN  ,26003,Alger County    ,2020-04-27,,07/10/2020,,4-27-2020,1,4,8.0,2020-12-31,Alger,Michigan,446.0,2.0,Alger,Michigan,46.4086,-86.604
26.0,MICHIGAN  ,26093,Livingston County    ,2020-04-27,,07/10/2020,,4-27-2020,1,4,8.0,2020-12-31,Livingston,Michigan,7853.0,74.0,Livingston,Michigan,42.6029,-83.9115
26.0,MICHIGAN  ,26077,Kalamazoo County    ,2020-04-27,,07/10/2020,,4-27-2020,1,4,8.0,2020-12-31,Kalamazoo,Michigan,12232.0,240.0,Kalamazoo,Michigan,42.2455,-85.5312
26.0,MICHIGAN  ,26139,Ottawa County    ,2020-04-27,,07/10/2020,,4-27-2020,1,4,8.0,2020-12-31,Ottawa,Michigan,18640.0,272.0,Ottawa,Michigan,42.9598,-85.9961
26.0,MICHIGAN  ,26081,Kent County    ,2020-04-27,,07/10/2020,,4-27-2020,1,4,8.0,2020-12-31,Kent,Michigan,43280.0,543.0,Kent,Michigan,43.0322,-85.5493
26.0,MICHIGAN  ,26097,Mackinac County    ,2020-04-27,,07/10/2020,,4-27-2020,1,4,8.0,2020-12-31,Mackinac,Michigan,380.0,2.0,Mackinac,Michigan,46.0802,-85.0868
26.0,MICHIGAN  ,26141,Presque Isle County   ,2020-04-27,,07/10/2020,,4-27-2020,1,4,8.0,2020-12-31,Presque Isle,Michigan,530.0,9.0,Presque Isle,Michigan,45.3402,-83.9176
26.0,MICHIGAN  ,26033,Chippewa County    ,2020-04-27,,07/10/2020,,4-27-2020,1,4,8.0,2020-12-31,Chippewa,Michigan,2780.0,20.0,Chippewa,Michigan,46.3053,-84.5777
26.0,MICHIGAN  ,26121,Muskegon County    ,2020-04-27,,07/10/2020,,4-27-2020,1,4,8.0,2020-12-31,Muskegon,Michigan,11067.0,269.0,Muskegon,Michigan,43.2912,-86.152
26.0,MICHIGAN  ,26131,Ontonagon County    ,2020-04-27,,07/10/2020,,4-27-2020,1,4,8.0,2020-12-31,Ontonagon,Michigan,306.0,16.0,Ontonagon,Michigan,46.6645,-89.3149
26.0,MICHIGAN  ,26135,Oscoda County    ,2020-04-27,,07/10/2020,,4-27-2020,1,4,8.0,2020-12-31,Oscoda,Michigan,308.0,15.0,Oscoda,Michigan,44.6818,-84.1298
26.0,MICHIGAN  ,26101,Manistee County    ,2020-04-27,,07/10/2020,,4-27-2020,1,4,8.0,2020-12-31,Manistee,Michigan,609.0,15.0,Manistee,Michigan,44.333,-86.0568
26.0,MICHIGAN  ,26075,Jackson County    ,2020-04-27,,07/10/2020,,4-27-2020,1,4,8.0,2020-12-31,Jackson,Michigan,10366.0,176.0,Jackson,Michigan,42.2485,-84.4234
26.0,MICHIGAN  ,26095,Luce County    ,2020-04-27,,07/10/2020,,4-27-2020,1,4,8.0,2020-12-31,Luce,Michigan,976.0,0.0,Luce,Michigan,46.4707,-85.5444
26.0,MICHIGAN  ,26129,Ogemaw County    ,2020-04-27,,07/10/2020,,4-27-2020,1,4,8.0,2020-12-31,Ogemaw,Michigan,921.0,30.0,Ogemaw,Michigan,44.335,-84.1264
26.0,MICHIGAN  ,26125,Oakland County    ,2020-04-14,,07/10/2020,,4-14-2020,1,4,8.0,2020-12-31,Oakland,Michigan,61195.0,1636.0,Oakland,Michigan,42.6604,-83.3858
26.0,MICHIGAN  ,26051,Gladwin County    ,2020-04-27,,07/10/2020,,4-27-2020,1,4,8.0,2020-12-31,Gladwin,Michigan,1184.0,32.0,Gladwin,Michigan,43.9907,-84.3883
26.0,MICHIGAN  ,26055,Grand Traverse County   ,2020-04-27,,07/10/2020,,4-27-2020,1,4,8.0,2020-12-31,Grand Traverse,Michigan,3042.0,46.0,Grand Traverse,Michigan,44.6688,-85.5605
26.0,MICHIGAN  ,26057,Gratiot County    ,2020-04-27,,07/10/2020,,4-27-2020,1,4,8.0,2020-12-31,Gratiot,Michigan,4148.0,71.0,Gratiot,Michigan,43.2927,-84.6049
26.0,MICHIGAN  ,26035,Clare County    ,2020-04-27,,07/10/2020,,4-27-2020,1,4,8.0,2020-12-31,Clare,Michigan,1224.0,41.0,Clare,Michigan,43.9879,-84.8478
26.0,MICHIGAN  ,26031,Cheboygan County    ,2020-04-27,,07/10/2020,,4-27-2020,1,4,8.0,2020-12-31,Cheboygan,Michigan,737.0,33.0,Cheboygan,Michigan,45.4465,-84.4999
26.0,MICHIGAN  ,26087,Lapeer County    ,2020-04-27,,07/10/2020,,4-27-2020,1,4,8.0,2020-12-31,Lapeer,Michigan,4334.0,108.0,Lapeer,Michigan,43.0901,-83.2218
26.0,MICHIGAN  ,26127,Oceana County    ,2020-04-27,,07/10/2020,,4-27-2020,1,4,8.0,2020-12-31,Oceana,Michigan,1605.0,43.0,Oceana,Michigan,43.6409,-86.2676
26.0,MICHIGAN  ,26071,Iron County    ,2020-04-27,,07/10/2020,,4-27-2020,1,4,8.0,2020-12-31,Iron,Michigan,813.0,37.0,Iron,Michigan,46.2087,-88.5305
26.0,MICHIGAN  ,26053,Gogebic County    ,2020-04-27,,07/10/2020,,4-27-2020,1,4,8.0,2020-12-31,Gogebic,Michigan,1002.0,38.0,Gogebic,Michigan,46.4089,-89.6944
26.0,MICHIGAN  ,26009,Antrim County    ,2020-04-27,,07/10/2020,,4-27-2020,1,4,8.0,2020-12-31,Antrim,Michigan,620.0,9.0,Antrim,Michigan,44.9991,-85.1402
26.0,MICHIGAN  ,26117,Montcalm County    ,2020-04-27,,07/10/2020,,4-27-2020,1,4,8.0,2020-12-31,Montcalm,Michigan,3205.0,65.0,Montcalm,Michigan,43.311,-85.1525
26.0,MICHIGAN  ,26133,Osceola County    ,2020-04-27,,07/10/2020,,4-27-2020,1,4,8.0,2020-12-31,Osceola,Michigan,841.0,18.0,Osceola,Michigan,43.9898,-85.3253
26.0,MICHIGAN  ,26015,Barry County    ,2020-04-27,,07/10/2020,,4-27-2020,1,4,8.0,2020-12-31,Barry,Michigan,2968.0,34.0,Barry,Michigan,42.595,-85.309
26.0,MICHIGAN  ,26073,Isabella County    ,2020-04-27,,07/10/2020,,4-27-2020,1,4,8.0,2020-12-31,Isabella,Michigan,3426.0,42.0,Isabella,Michigan,43.6406,-84.8468
26.0,MICHIGAN  ,26049,Genesee County    ,2020-04-27,,07/10/2020,,4-27-2020,1,4,8.0,2020-12-31,Genesee,Michigan,21619.0,596.0,Genesee,Michigan,43.0217,-83.7067
26.0,MICHIGAN  ,26137,Otsego County    ,2020-04-27,,07/10/2020,,4-27-2020,1,4,8.0,2020-12-31,Otsego,Michigan,1026.0,22.0,Otsego,Michigan,45.0214,-84.599
26.0,MICHIGAN  ,26005,Allegan County    ,2020-04-27,,07/10/2020,,4-27-2020,1,4,8.0,2020-12-31,Allegan,Michigan,5758.0,66.0,Allegan,Michigan,42.5913,-85.8884
26.0,MICHIGAN  ,26119,Montmorency County    ,2020-04-27,,07/10/2020,,4-27-2020,1,4,8.0,2020-12-31,Montmorency,Michigan,286.0,9.0,Montmorency,Michigan,45.0276,-84.1272
26.0,MICHIGAN  ,26063,Huron County    ,2020-04-27,,07/10/2020,,4-27-2020,1,4,8.0,2020-12-31,Huron,Michigan,1523.0,42.0,Huron,Michigan,43.8334,-83.0232
26.0,MICHIGAN  ,26113,Missaukee County    ,2020-04-27,,07/10/2020,,4-27-2020,1,4,8.0,2020-12-31,Missaukee,Michigan,481.0,8.0,Missaukee,Michigan,44.3374,-85.0947
26.0,MICHIGAN  ,26041,Delta County    ,2020-04-27,,07/10/2020,,4-27-2020,1,4,8.0,2020-12-31,Delta,Michigan,2889.0,77.0,Delta,Michigan,45.9191,-86.9242
26.0,MICHIGAN  ,26011,Arenac County    ,2020-04-27,,07/10/2020,,4-27-2020,1,4,8.0,2020-12-31,Arenac,Michigan,597.0,24.0,Arenac,Michigan,44.0647,-83.894
26.0,MICHIGAN  ,26111,Midland County    ,2020-04-27,,07/10/2020,,4-27-2020,1,4,8.0,2020-12-31,Midland,Michigan,4011.0,44.0,Midland,Michigan,43.6468,-84.3881
26.0,MICHIGAN  ,26065,Ingham County    ,2020-04-27,,07/10/2020,,4-27-2020,1,4,8.0,2020-12-31,Ingham,Michigan,12635.0,184.0,Ingham,Michigan,42.5971,-84.3735
26.0,MICHIGAN  ,26107,Mecosta County    ,2020-04-27,,07/10/2020,,4-27-2020,1,4,8.0,2020-12-31,Mecosta,Michigan,1651.0,14.0,Mecosta,Michigan,43.6408,-85.3246
26.0,MICHIGAN  ,26105,Mason County    ,2020-04-27,,07/10/2020,,4-27-2020,1,4,8.0,2020-12-31,Mason,Michigan,979.0,19.0,Mason,Michigan,43.9952,-86.25
26.0,MICHIGAN  ,26123,Newaygo County    ,2020-04-27,,07/10/2020,,4-27-2020,1,4,8.0,2020-12-31,Newaygo,Michigan,2253.0,33.0,Newaygo,Michigan,43.5542,-85.8009
26.0,MICHIGAN  ,26027,Cass County    ,2020-04-27,,07/10/2020,,4-27-2020,1,4,8.0,2020-12-31,Cass,Michigan,3194.0,45.0,Cass,Michigan,41.9154,-85.9935
26.0,MICHIGAN  ,26059,Hillsdale County    ,2020-04-27,,07/10/2020,,4-27-2020,1,4,8.0,2020-12-31,Hillsdale,Michigan,2588.0,57.0,Hillsdale,Michigan,41.8878,-84.5929
26.0,MICHIGAN  ,26109,Menominee County    ,2020-04-27,,07/10/2020,,4-27-2020,1,4,8.0,2020-12-31,Menominee,Michigan,1689.0,25.0,Menominee,Michigan,45.58,-87.5566
26.0,MICHIGAN  ,26001,Alcona County    ,2020-04-27,,07/10/2020,,4-27-2020,1,4,8.0,2020-12-31,Alcona,Michigan,336.0,14.0,Alcona,Michigan,44.6854,-83.5937
26.0,MICHIGAN  ,26069,Iosco County    ,2020-04-27,,07/10/2020,,4-27-2020,1,4,8.0,2020-12-31,Iosco,Michigan,1104.0,46.0,Iosco,Michigan,44.3558,-83.6359
26.0,MICHIGAN  ,26089,Leelanau County    ,2020-04-27,,07/10/2020,,4-27-2020,1,4,8.0,2020-12-31,Leelanau,Michigan,626.0,7.0,Leelanau,Michigan,44.9386,-85.8118
26.0,MICHIGAN  ,26079,Kalkaska County    ,2020-04-27,,07/10/2020,,4-27-2020,1,4,8.0,2020-12-31,Kalkaska,Michigan,492.0,12.0,Kalkaska,Michigan,44.6847,-85.0902
26.0,MICHIGAN  ,26143,Roscommon County    ,2020-04-27,,07/10/2020,,4-27-2020,1,4,8.0,2020-12-31,Roscommon,Michigan,963.0,27.0,Roscommon,Michigan,44.3356,-84.6116
26.0,MICHIGAN  ,26037,Clinton County    ,2020-04-27,,07/10/2020,,4-27-2020,1,4,8.0,2020-12-31,Clinton,Michigan,3879.0,40.0,Clinton,Michigan,42.9437,-84.6015
27.0,MINNESOTA  ,27053,Hennepin County    ,2020-05-26,,07/25/2020,,5-26-2020,1,5,7.0,2020-12-31,Hennepin,Minnesota,86273.0,1382.0,Hennepin,Minnesota,45.0046,-93.4769
27.0,MINNESOTA  ,27003,Anoka County    ,2020-06-10,,07/25/2020,,6-10-2020,1,6,6.0,2020-12-31,Anoka,Minnesota,28973.0,323.0,Anoka,Minnesota,45.2733,-93.2465
27.0,MINNESOTA  ,27123,Ramsey County    ,2020-06-01,,07/25/2020,,6-1-2020,1,6,6.0,2020-12-31,Ramsey,Minnesota,37111.0,688.0,Ramsey,Minnesota,45.0171,-93.0996
27.0,MINNESOTA  ,27013,Blue Earth County   ,2020-07-10,9/5/2020 (told by city's order),07/25/2020,,7-10-2020,1,7,5.0,2020-12-31,Blue Earth,Minnesota,5040.0,28.0,Blue Earth,Minnesota,44.0346,-94.067
27.0,MINNESOTA  ,27103,Nicollet County    ,2020-07-10,  9/5/2020,07/25/2020,,7-10-2020,1,7,5.0,2020-12-31,Nicollet,Minnesota,2073.0,32.0,Nicollet,Minnesota,44.3499,-94.2474
27.0,MINNESOTA  ,27009,Benton County    ,2020-07-20,"remain in effect for 30 days unless rescinded early or renewed by council vote, according to the law as it appeared on the council agenda. The local mask law will also expire if either the St. Cloud state of emergency or the statewide Peacetime Emergency expire, or if a statewide mask law is enacted.",07/25/2020,,7-20-2020,1,7,5.0,2020-12-31,Benton,Minnesota,3888.0,78.0,Benton,Minnesota,45.6991,-93.9988
27.0,MINNESOTA  ,27145,Stearns County    ,2020-07-20,"remain in effect for 30 days unless rescinded early or renewed by council vote, according to the law as it appeared on the council agenda. The local mask law will also expire if either the St. Cloud state of emergency or the statewide Peacetime Emergency expire, or if a statewide mask law is enacted.",07/25/2020,,7-20-2020,1,7,5.0,2020-12-31,Stearns,Minnesota,16946.0,172.0,Stearns,Minnesota,45.5521,-94.613
27.0,MINNESOTA  ,27163,Washington County    ,2020-07-17,until the peacetime emergency declared in Executive Order 20-01 is terminated,07/25/2020,,7-17-2020,1,7,5.0,2020-12-31,Washington,Minnesota,18467.0,190.0,Washington,Minnesota,45.0387,-92.8839
27.0,MINNESOTA  ,27141,Sherburne County    ,2020-07-21,,07/25/2020,,7-21-2020,1,7,5.0,2020-12-31,Sherburne,Minnesota,7654.0,57.0,Sherburne,Minnesota,45.4439,-93.7746
27.0,MINNESOTA  ,27079,Le Sueur County   ,2020-07-10,  9/5/2020,07/25/2020,,7-10-2020,1,7,5.0,2020-12-31,Le Sueur,Minnesota,1950.0,15.0,Le Sueur,Minnesota,44.3714,-93.7301
27.0,MINNESOTA  ,27143,Sibley County    ,2020-07-21,,07/25/2020,,7-21-2020,1,7,5.0,2020-12-31,Sibley,Minnesota,1021.0,5.0,Sibley,Minnesota,44.5795,-94.2321
27.0,MINNESOTA  ,27137,St. Louis County   ,2020-07-13,,07/25/2020,,7-13-2020,1,7,5.0,2020-12-31,St. Louis,Minnesota,12538.0,205.0,St. Louis,Minnesota,47.6032,-92.4706
27.0,MINNESOTA  ,27169,Winona County    ,2020-07-10,,07/25/2020,,7-10-2020,1,7,5.0,2020-12-31,Winona,Minnesota,3565.0,43.0,Winona,Minnesota,43.9869,-91.7792
27.0,MINNESOTA  ,27109,Olmsted County    ,2020-07-08,,07/25/2020,,7-8-2020,1,7,5.0,2020-12-31,Olmsted,Minnesota,9309.0,61.0,Olmsted,Minnesota,44.0038,-92.4018
27.0,MINNESOTA  ,27007,Beltrami County    ,2020-07-21,,07/25/2020,,7-21-2020,1,7,5.0,2020-12-31,Beltrami,Minnesota,2871.0,41.0,Beltrami,Minnesota,47.9738,-94.9377
28.0,MISSISSIPPI  ,28087,Lowndes County    ,2020-07-09,,,08/03/2020,7-9-2020,1,7,5.0,2020-12-31,Lowndes,Mississippi,4394.0,92.0,Lowndes,Mississippi,33.4729,-88.4433
28.0,MISSISSIPPI  ,28007,Attala County    ,2020-05-12,,,08/03/2020,5-12-2020,1,5,7.0,2020-12-31,Attala,Mississippi,1728.0,51.0,Attala,Mississippi,33.0863,-89.5815
28.0,MISSISSIPPI  ,28151,Washington County    ,2020-07-20,,,08/03/2020,7-20-2020,1,7,5.0,2020-12-31,Washington,Mississippi,4259.0,116.0,Washington,Mississippi,33.2838,-90.9475
28.0,MISSISSIPPI  ,28135,Tallahatchie County    ,2020-07-20,,,08/03/2020,7-20-2020,1,7,5.0,2020-12-31,Tallahatchie,Mississippi,1228.0,32.0,Tallahatchie,Mississippi,33.9505,-90.1732
28.0,MISSISSIPPI  ,28137,Tate County    ,2020-07-20,,,08/03/2020,7-20-2020,1,7,5.0,2020-12-31,Tate,Mississippi,2391.0,56.0,Tate,Mississippi,34.6503,-89.9448
28.0,MISSISSIPPI  ,28079,Leake County    ,2020-05-12,,,08/03/2020,5-12-2020,1,5,7.0,2020-12-31,Leake,Mississippi,2049.0,51.0,Leake,Mississippi,32.7535,-89.524
28.0,MISSISSIPPI  ,28123,Scott County    ,2020-05-12,,,08/03/2020,5-12-2020,1,5,7.0,2020-12-31,Scott,Mississippi,2131.0,40.0,Scott,Mississippi,32.4064,-89.5376
28.0,MISSISSIPPI  ,28081,Lee County    ,2020-06-29,,,08/03/2020,6-29-2020,1,6,6.0,2020-12-31,Lee,Mississippi,7668.0,118.0,Lee,Mississippi,34.2899,-88.6804
28.0,MISSISSIPPI  ,28033,DeSoto County    ,2020-07-13,,,08/03/2020,7-13-2020,1,7,5.0,2020-12-31,DeSoto,Mississippi,14714.0,139.0,DeSoto,Mississippi,34.8754,-89.9918
28.0,MISSISSIPPI  ,28101,Newton County    ,2020-05-12,,,08/03/2020,5-12-2020,1,5,7.0,2020-12-31,Newton,Mississippi,1615.0,33.0,Newton,Mississippi,32.4002,-89.1188
28.0,MISSISSIPPI  ,28107,Panola County    ,2020-07-20,,,08/03/2020,7-20-2020,1,7,5.0,2020-12-31,Panola,Mississippi,3202.0,70.0,Panola,Mississippi,34.3639,-89.9506
28.0,MISSISSIPPI  ,28089,Madison County    ,2020-07-13,,,08/03/2020,7-13-2020,1,7,5.0,2020-12-31,Madison,Mississippi,7194.0,136.0,Madison,Mississippi,32.6347,-90.0337
28.0,MISSISSIPPI  ,28075,Lauderdale County    ,2020-05-12,,,08/03/2020,5-12-2020,1,5,7.0,2020-12-31,Lauderdale,Mississippi,4941.0,171.0,Lauderdale,Mississippi,32.4043,-88.6625
28.0,MISSISSIPPI  ,28061,Jasper County    ,2020-05-12,,,08/03/2020,5-12-2020,1,5,7.0,2020-12-31,Jasper,Mississippi,1435.0,25.0,Jasper,Mississippi,32.0191,-89.1188
28.0,MISSISSIPPI  ,28043,Grenada County    ,2020-07-20,,,08/03/2020,7-20-2020,1,7,5.0,2020-12-31,Grenada,Mississippi,1962.0,62.0,Grenada,Mississippi,33.7699,-89.8019
28.0,MISSISSIPPI  ,28105,Oktibbeha County    ,2020-07-07,,,08/03/2020,7-7-2020,1,7,5.0,2020-12-31,Oktibbeha,Mississippi,3409.0,74.0,Oktibbeha,Mississippi,33.425,-88.8793
28.0,MISSISSIPPI  ,28035,Forrest County    ,2020-07-20,,,08/03/2020,7-20-2020,1,7,5.0,2020-12-31,Forrest,Mississippi,5232.0,101.0,Forrest,Mississippi,31.1889,-89.2579
28.0,MISSISSIPPI  ,28011,Bolivar County    ,2020-07-20,,,08/03/2020,7-20-2020,1,7,5.0,2020-12-31,Bolivar,Mississippi,3418.0,95.0,Bolivar,Mississippi,33.7956,-90.8804
28.0,MISSISSIPPI  ,28025,Clay County    ,2020-07-07,,,08/03/2020,7-7-2020,1,7,5.0,2020-12-31,Clay,Mississippi,1329.0,30.0,Clay,Mississippi,33.6557,-88.7815
28.0,MISSISSIPPI  ,28099,Neshoba County    ,2020-05-12,,,08/03/2020,5-12-2020,1,5,7.0,2020-12-31,Neshoba,Mississippi,3006.0,141.0,Neshoba,Mississippi,32.7535,-89.1176
28.0,MISSISSIPPI  ,28119,Quitman County    ,2020-07-13,,,08/03/2020,7-13-2020,1,7,5.0,2020-12-31,Quitman,Mississippi,600.0,7.0,Quitman,Mississippi,34.2514,-90.2891
28.0,MISSISSIPPI  ,28133,Sunflower County    ,2020-07-13,,,08/03/2020,7-13-2020,1,7,5.0,2020-12-31,Sunflower,Mississippi,2408.0,61.0,Sunflower,Mississippi,33.6023,-90.5886
28.0,MISSISSIPPI  ,28047,Harrison County    ,2020-07-13,,,08/03/2020,7-13-2020,1,7,5.0,2020-12-31,Harrison,Mississippi,10680.0,157.0,Harrison,Mississippi,30.5118,-89.1159
28.0,MISSISSIPPI  ,28059,Jackson County    ,2020-07-13,,,08/03/2020,7-13-2020,1,7,5.0,2020-12-31,Jackson,Mississippi,8771.0,158.0,Jackson,Mississippi,30.5423,-88.6357
28.0,MISSISSIPPI  ,28125,Sharkey County    ,2020-07-20,,,08/03/2020,7-20-2020,1,7,5.0,2020-12-31,Sharkey,Mississippi,387.0,17.0,Sharkey,Mississippi,32.8799,-90.8132
28.0,MISSISSIPPI  ,28071,Lafayette County    ,2020-04-30,,,08/03/2020,4-30-2020,1,4,8.0,2020-12-31,Lafayette,Mississippi,4250.0,83.0,Lafayette,Mississippi,34.3567,-89.4849
28.0,MISSISSIPPI  ,28021,Claiborne County    ,2020-07-13,,,08/03/2020,7-13-2020,1,7,5.0,2020-12-31,Claiborne,Mississippi,708.0,20.0,Claiborne,Mississippi,31.9737,-90.9118
28.0,MISSISSIPPI  ,28121,Rankin County    ,2020-07-13,,,08/03/2020,7-13-2020,1,7,5.0,2020-12-31,Rankin,Mississippi,8793.0,165.0,Rankin,Mississippi,32.2641,-89.9458
28.0,MISSISSIPPI  ,28053,Humphreys County    ,2020-07-20,,,08/03/2020,7-20-2020,1,7,5.0,2020-12-31,Humphreys,Mississippi,726.0,22.0,Humphreys,Mississippi,33.1287,-90.5266
28.0,MISSISSIPPI  ,28063,Jefferson County    ,2020-07-13,,,08/03/2020,7-13-2020,1,7,5.0,2020-12-31,Jefferson,Mississippi,466.0,14.0,Jefferson,Mississippi,31.7343,-91.0373
28.0,MISSISSIPPI  ,28083,Leflore County    ,2020-07-09,,,08/03/2020,7-9-2020,1,7,5.0,2020-12-31,Leflore,Mississippi,2649.0,101.0,Leflore,Mississippi,33.5505,-90.3011
28.0,MISSISSIPPI  ,28127,Simpson County    ,2020-07-20,,,08/03/2020,7-20-2020,1,7,5.0,2020-12-31,Simpson,Mississippi,2042.0,63.0,Simpson,Mississippi,31.9132,-89.9195
28.0,MISSISSIPPI  ,28147,Walthall County    ,2020-07-20,,,08/03/2020,7-20-2020,1,7,5.0,2020-12-31,Walthall,Mississippi,1002.0,34.0,Walthall,Mississippi,31.1484,-90.1061
28.0,MISSISSIPPI  ,28153,Wayne County    ,2020-07-13,,,08/03/2020,7-13-2020,1,7,5.0,2020-12-31,Wayne,Mississippi,1671.0,27.0,Wayne,Mississippi,31.6408,-88.6958
28.0,MISSISSIPPI  ,28031,Covington County    ,2020-07-20,,,08/03/2020,7-20-2020,1,7,5.0,2020-12-31,Covington,Mississippi,1843.0,67.0,Covington,Mississippi,31.6332,-89.5526
28.0,MISSISSIPPI  ,28049,Hinds County    ,2020-07-13,,,08/03/2020,7-13-2020,1,7,5.0,2020-12-31,Hinds,Mississippi,13966.0,265.0,Hinds,Mississippi,32.2667,-90.4428
29.0,MISSOURI  ,29165,Platte County    ,2020-07-16,August,,,7-16-2020,1,7,5.0,2020-12-31,Platte,Missouri,2420.0,23.0,Platte,Missouri,39.3803,-94.7738
29.0,MISSOURI  ,29031,Cape Girardeau County   ,2020-07-13,no expiration date listed on the order,,,7-13-2020,1,7,5.0,2020-12-31,Cape Girardeau,Missouri,7754.0,109.0,Cape Girardeau,Missouri,37.384,-89.6845
29.0,MISSOURI  ,29510,St. Louis city   ,2020-05-22,,,,5-22-2020,1,5,7.0,2020-12-31,St. Louis city,Missouri,17028.0,302.0,St. Louis,Missouri,38.6358,-90.2451
29.0,MISSOURI  ,29095,Jackson County    ,2020-07-01,set to expire July 20 but planned to extend,,,7-1-2020,1,7,5.0,2020-12-31,Jackson,Missouri,23425.0,243.0,Jackson,Missouri,39.0085,-94.3461
29.0,MISSOURI  ,29101,Johnson County    ,2020-07-06,"12 a.m, July 28, but can be amended as necessary.",,,7-6-2020,1,7,5.0,2020-12-31,Johnson,Missouri,3214.0,29.0,Johnson,Missouri,38.7441,-93.8064
29.0,MISSOURI  ,29047,Clay County    ,2020-07-19,11:59 p.m.  Aug. 23,,,7-19-2020,1,7,5.0,2020-12-31,Clay,Missouri,7134.0,98.0,Clay,Missouri,39.3105,-94.4209
29.0,MISSOURI  ,29189,St. Louis County   ,2020-07-03,unfound,,,7-3-2020,1,7,5.0,2020-12-31,St. Louis,Missouri,69480.0,1391.0,St. Louis,Missouri,38.6405,-90.4433
29.0,MISSOURI  ,29097,Jasper County    ,2020-07-11, 8/17/2020,,,7-11-2020,1,7,5.0,2020-12-31,Jasper,Missouri,6020.0,84.0,Jasper,Missouri,37.2036,-94.3406
29.0,MISSOURI  ,29077,Greene County    ,2020-07-16,"11:59 pm 8/4/2020, unless a new ordinance amends the sunset date",,,7-16-2020,1,7,5.0,2020-12-31,Greene,Missouri,21496.0,297.0,Greene,Missouri,37.258,-93.342
29.0,MISSOURI  ,29019,Boone County    ,2020-07-10,10/8/2020(Oct. 8th),,,7-10-2020,1,7,5.0,2020-12-31,Boone,Missouri,13835.0,58.0,Boone,Missouri,38.9906,-92.3097
30.0,MONTANA  ,30041,Hill County    ,2020-07-15,End of  declared state of emergency ,,,7-15-2020,1,7,5.0,2020-12-31,Hill,Montana,1639.0,34.0,Hill,Montana,48.6282,-110.1112
30.0,MONTANA  ,30053,Lincoln County    ,2020-07-15,End of  declared state of emergency ,,,7-15-2020,1,7,5.0,2020-12-31,Lincoln,Montana,1089.0,9.0,Lincoln,Montana,48.5424,-115.4051
30.0,MONTANA  ,30101,Toole County    ,2020-07-15,End of  declared state of emergency ,,,7-15-2020,1,7,5.0,2020-12-31,Toole,Montana,673.0,8.0,Toole,Montana,48.6554,-111.6956
30.0,MONTANA  ,30015,Chouteau County    ,2020-07-15,End of  declared state of emergency ,,,7-15-2020,1,7,5.0,2020-12-31,Chouteau,Montana,371.0,4.0,Chouteau,Montana,47.8806,-110.4352
30.0,MONTANA  ,30089,Sanders County    ,2020-07-17,End of  declared state of emergency ,,,7-17-2020,1,7,5.0,2020-12-31,Sanders,Montana,440.0,3.0,Sanders,Montana,47.6748,-115.1333
30.0,MONTANA  ,30057,Madison County    ,2020-07-15,End of  declared state of emergency ,,,7-15-2020,1,7,5.0,2020-12-31,Madison,Montana,509.0,3.0,Madison,Montana,45.3007,-111.9203
30.0,MONTANA  ,30013,Cascade County    ,2020-07-15,End of  declared state of emergency ,,,7-15-2020,1,7,5.0,2020-12-31,Cascade,Montana,6634.0,104.0,Cascade,Montana,47.308,-111.347
30.0,MONTANA  ,30023,Deer Lodge County   ,2020-07-15,End of  declared state of emergency ,,,7-15-2020,1,7,5.0,2020-12-31,Deer Lodge,Montana,847.0,9.0,Deer Lodge,Montana,46.0607,-113.0679
30.0,MONTANA  ,30067,Park County    ,2020-07-15,End of  declared state of emergency ,,,7-15-2020,1,7,5.0,2020-12-31,Park,Montana,876.0,6.0,Park,Montana,45.4884,-110.5267
30.0,MONTANA  ,30095,Stillwater County    ,2020-07-15,End of  declared state of emergency ,,,7-15-2020,1,7,5.0,2020-12-31,Stillwater,Montana,543.0,8.0,Stillwater,Montana,45.669,-109.3952
30.0,MONTANA  ,30087,Rosebud County    ,2020-07-17,End of  declared state of emergency ,,,7-17-2020,1,7,5.0,2020-12-31,Rosebud,Montana,1027.0,28.0,Rosebud,Montana,46.2297,-106.7307
30.0,MONTANA  ,30001,Beaverhead County    ,2020-07-15,End of  declared state of emergency ,,,7-15-2020,1,7,5.0,2020-12-31,Beaverhead,Montana,769.0,8.0,Beaverhead,Montana,45.1327,-112.8988
30.0,MONTANA  ,30029,Flathead County    ,2020-07-15,End of  declared state of emergency ,,,7-15-2020,1,7,5.0,2020-12-31,Flathead,Montana,8854.0,56.0,Flathead,Montana,48.2951,-114.0497
30.0,MONTANA  ,30105,Valley County    ,2020-07-15,End of  declared state of emergency ,,,7-15-2020,1,7,5.0,2020-12-31,Valley,Montana,644.0,7.0,Valley,Montana,48.3653,-106.6674
30.0,MONTANA  ,30009,Carbon County    ,2020-07-16,End of  declared state of emergency ,,,7-16-2020,1,7,5.0,2020-12-31,Carbon,Montana,682.0,8.0,Carbon,Montana,45.2274,-109.0281
30.0,MONTANA  ,30063,Missoula County    ,2020-07-09,,,,7-9-2020,1,7,5.0,2020-12-31,Missoula,Montana,6390.0,54.0,Missoula,Montana,47.0365,-113.9237
30.0,MONTANA  ,30083,Richland County    ,2020-07-15,End of  declared state of emergency ,,,7-15-2020,1,7,5.0,2020-12-31,Richland,Montana,875.0,11.0,Richland,Montana,47.7879,-104.5614
30.0,MONTANA  ,30021,Dawson County    ,2020-07-15,End of  declared state of emergency ,,,7-15-2020,1,7,5.0,2020-12-31,Dawson,Montana,926.0,23.0,Dawson,Montana,47.2664,-104.8995
30.0,MONTANA  ,30007,Broadwater County    ,2020-07-16,End of  declared state of emergency ,,,7-16-2020,1,7,5.0,2020-12-31,Broadwater,Montana,294.0,1.0,Broadwater,Montana,46.3324,-111.4955
30.0,MONTANA  ,30059,Meagher County    ,2020-07-15,End of  declared state of emergency ,,,7-15-2020,1,7,5.0,2020-12-31,Meagher,Montana,111.0,7.0,Meagher,Montana,46.5982,-110.8857
30.0,MONTANA  ,30113,Yellowstone National Park   ,2020-07-01,,,,7-1-2020,1,7,5.0,,,,,,,,,
30.0,MONTANA  ,30027,Fergus County    ,2020-07-17,End of  declared state of emergency ,,,7-17-2020,1,7,5.0,2020-12-31,Fergus,Montana,860.0,13.0,Fergus,Montana,47.2636,-109.2245
30.0,MONTANA  ,30017,Custer County    ,2020-07-15,End of  declared state of emergency ,,,7-15-2020,1,7,5.0,2020-12-31,Custer,Montana,987.0,9.0,Custer,Montana,46.2527,-105.5717
30.0,MONTANA  ,30003,Big Horn County   ,2020-06-26,,,,6-26-2020,1,6,6.0,2020-12-31,Big Horn,Montana,2050.0,58.0,Big Horn,Montana,45.4234,-107.4898
30.0,MONTANA  ,30049,Lewis and Clark County  ,2020-07-15,End of  declared state of emergency ,,,7-15-2020,1,7,5.0,2020-12-31,Lewis and Clark,Montana,4859.0,38.0,Lewis and Clark,Montana,47.1224,-112.3904
30.0,MONTANA  ,30031,Gallatin County    ,2020-07-15,End of  declared state of emergency ,,,7-15-2020,1,7,5.0,2020-12-31,Gallatin,Montana,9454.0,38.0,Gallatin,Montana,45.5404,-111.1704
30.0,MONTANA  ,30043,Jefferson County    ,2020-07-15,End of  declared state of emergency ,,,7-15-2020,1,7,5.0,2020-12-31,Jefferson,Montana,777.0,4.0,Jefferson,Montana,46.1485,-112.0938
30.0,MONTANA  ,30033,Garfield County    ,2020-07-15,End of  declared state of emergency ,,,7-15-2020,1,7,5.0,2020-12-31,Garfield,Montana,72.0,2.0,Garfield,Montana,47.2776,-106.9929
30.0,MONTANA  ,30047,Lake County    ,2020-07-15,End of  declared state of emergency ,,,7-15-2020,1,7,5.0,2020-12-31,Lake,Montana,1471.0,16.0,Lake,Montana,47.6459,-114.0893
30.0,MONTANA  ,30085,Roosevelt County    ,2020-07-15,End of  declared state of emergency ,,,7-15-2020,1,7,5.0,2020-12-31,Roosevelt,Montana,1390.0,51.0,Roosevelt,Montana,48.2945,-105.0164
30.0,MONTANA  ,30093,Silver Bow County   ,2020-07-15,End of  declared state of emergency ,,,7-15-2020,1,7,5.0,2020-12-31,Silver Bow,Montana,3033.0,34.0,Silver Bow,Montana,45.9024,-112.6567
30.0,MONTANA  ,30111,Yellowstone County    ,2020-07-15,End of  declared state of emergency ,,,7-15-2020,1,7,5.0,2020-12-31,Yellowstone,Montana,13847.0,161.0,Yellowstone,Montana,45.9373,-108.2744
30.0,MONTANA  ,30039,Granite County    ,2020-07-15,End of  declared state of emergency ,,,7-15-2020,1,7,5.0,2020-12-31,Granite,Montana,162.0,2.0,Granite,Montana,46.4045,-113.4403
30.0,MONTANA  ,30073,Pondera County    ,2020-07-20,End of  declared state of emergency ,,,7-20-2020,1,7,5.0,2020-12-31,Pondera,Montana,387.0,3.0,Pondera,Montana,48.2277,-112.2263
30.0,MONTANA  ,30035,Glacier County    ,2020-07-15,End of  declared state of emergency ,,,7-15-2020,1,7,5.0,2020-12-31,Glacier,Montana,1324.0,23.0,Glacier,Montana,48.7051,-112.9947
30.0,MONTANA  ,30005,Blaine County    ,2020-07-16,End of  declared state of emergency ,,,7-16-2020,1,7,5.0,2020-12-31,Blaine,Montana,603.0,22.0,Blaine,Montana,48.4327,-108.9586
30.0,MONTANA  ,30099,Teton County    ,2020-07-15,End of  declared state of emergency ,,,7-15-2020,1,7,5.0,2020-12-31,Teton,Montana,312.0,5.0,Teton,Montana,47.8371,-112.2409
31.0,NEBRASKA  ,31109,Lancaster County    ,2020-07-20,31aug2020,,,7-20-2020,1,7,5.0,2020-12-31,Lancaster,Nebraska,22654.0,152.0,Lancaster,Nebraska,40.7842,-96.6878
32.0,NEVADA  ,32011,Eureka County    ,2020-06-26,,06/25/2020,,6-25-2020,1,6,6.0,2020-12-31,Eureka,Nevada,29.0,0.0,Eureka,Nevada,39.9839,-116.2686
32.0,NEVADA  ,32007,Elko County    ,2020-06-26,,06/25/2020,,6-25-2020,1,6,6.0,2020-12-31,Elko,Nevada,3862.0,33.0,Elko,Nevada,41.1458,-115.3577
32.0,NEVADA  ,32017,Lincoln County    ,2020-06-26,,06/25/2020,,6-25-2020,1,6,6.0,2020-12-31,Lincoln,Nevada,277.0,1.0,Lincoln,Nevada,37.6433,-114.8775
